     3.03           OBSERVATION DATA    M (MIXED)           RINEX VERSION / TYPE
cnvtToRINEX 3.14.0  convertToRINEX OPR  20260102 051032 UTC PGM / RUN BY / DATE
gfzrnx-1.10-7329    FILE CONVERSION     20260102 051035 UTC COMMENT
----------------------------------------------------------- COMMENT
NVSK                                                        MARKER NAME
12319M001                                                   MARKER NUMBER
GEODETIC                                                    MARKER TYPE
ArdyukovDG          IPGG SB RAS                             OBSERVER / AGENCY
5937R24658          TRIMBLE R9S         5.44                REC # / TYPE / VERS
1441116772          TRM57971.00     NONE                    ANT # / TYPE
   433604.5256  3655561.9464  5191288.5836                  APPROX POSITION XYZ
        6.1661        0.0000        0.0000                  ANTENNA: DELTA H/E/N
     0                                                      RCV CLOCK OFFS APPL
 24 R01  1 R02 -4 R03  5 R04  6 R05  1 R06 -4 R07  5 R08  6 GLONASS SLOT / FRQ #
    R09 -2 R10 -7 R11  0 R12 -1 R13 -2 R14 -7 R15  0 R16 -1 GLONASS SLOT / FRQ #
    R17  4 R18 -3 R19  3 R20  2 R21  4 R22 -3 R23  3 R24  2 GLONASS SLOT / FRQ #
R L2C -0.25000                                              SYS / PHASE SHIFT
    18                  GPS                                 LEAP SECONDS
DBHZ                                                        SIGNAL STRENGTH UNIT
 C1C    0.000 C2C    0.000                                  GLONASS COD/PHS/BIS
G    4 C1C C2W L1C L2W                                      SYS / # / OBS TYPES
R    4 C1C C2C L1C L2C                                      SYS / # / OBS TYPES
    56                                                      # OF SATELLITES
   G01   978   942   972   942                              PRN / # OF OBS
   G02   987   949   979   949                              PRN / # OF OBS
   G03   953   943   946   943                              PRN / # OF OBS
   G04   704   686   702   686                              PRN / # OF OBS
   G05   724   697   714   697                              PRN / # OF OBS
   G06   716   699   710   699                              PRN / # OF OBS
   G07   719   719   719   719                              PRN / # OF OBS
   G08   860   852   857   852                              PRN / # OF OBS
   G09   861   843   850   843                              PRN / # OF OBS
   G10   755   755   755   755                              PRN / # OF OBS
   G11   688   688   688   688                              PRN / # OF OBS
   G12   965   942   957   942                              PRN / # OF OBS
   G13   949   903   948   903                              PRN / # OF OBS
   G14   756   750   755   750                              PRN / # OF OBS
   G15   856   825   847   825                              PRN / # OF OBS
   G16   855   738   836   738                              PRN / # OF OBS
   G17   701   700   701   700                              PRN / # OF OBS
   G18   728   718   725   718                              PRN / # OF OBS
   G19   662   662   662   662                              PRN / # OF OBS
   G20   766   674   759   674                              PRN / # OF OBS
   G21   851   801   846   801                              PRN / # OF OBS
   G22   745   745   745   745                              PRN / # OF OBS
   G23   714   714   714   714                              PRN / # OF OBS
   G24   922   917   919   917                              PRN / # OF OBS
   G25   942   927   936   927                              PRN / # OF OBS
   G26   832   809   818   809                              PRN / # OF OBS
   G27   942   935   940   935                              PRN / # OF OBS
   G28   753   699   745   699                              PRN / # OF OBS
   G29   877   864   870   864                              PRN / # OF OBS
   G30   772   752   760   752                              PRN / # OF OBS
   G31   709   703   709   703                              PRN / # OF OBS
   G32   772   768   769   768                              PRN / # OF OBS
   R01   917         917                                    PRN / # OF OBS
   R02  1138  1129  1137  1125                              PRN / # OF OBS
   R03  1157  1154  1157  1153                              PRN / # OF OBS
   R04  1093  1091  1093  1089                              PRN / # OF OBS
   R05   916   913   915   912                              PRN / # OF OBS
   R06   926   924   926   924                              PRN / # OF OBS
   R07   912   909   912   907                              PRN / # OF OBS
   R08   835   834   834   832                              PRN / # OF OBS
   R09   838   831   838   830                              PRN / # OF OBS
   R10   863         863                                    PRN / # OF OBS
   R11   124   123   124   123                              PRN / # OF OBS
   R12  1155  1150  1155  1150                              PRN / # OF OBS
   R13  1114        1114                                    PRN / # OF OBS
   R14  1012  1011  1012  1009                              PRN / # OF OBS
   R15   930   911   928   908                              PRN / # OF OBS
   R16   907   901   907   896                              PRN / # OF OBS
   R17  1032  1030  1032  1030                              PRN / # OF OBS
   R18  1112  1109  1112  1109                              PRN / # OF OBS
   R19  1082  1079  1082  1077                              PRN / # OF OBS
   R20   941   932   941   928                              PRN / # OF OBS
   R21   867   862   866   861                              PRN / # OF OBS
   R22   912   901   912   900                              PRN / # OF OBS
   R23   956         956                                    PRN / # OF OBS
   R24   996   993   996   992                              PRN / # OF OBS
    30.000                                                  INTERVAL
  2026     1     1     0     0    0.0000000     GPS         TIME OF FIRST OBS
  2026     1     1    23    59   30.0000000     GPS         TIME OF LAST OBS
                                                            END OF HEADER
> 2026 01 01 00 00 00.0000000  0 17
G01  22132092.477 7  22132095.566 5 116304780.090 7  90627221.477 5
G02  23462466.578 7  23462467.840 4 123296064.386 7  96074866.417 4
G03  22698823.375 7  22698828.230 6 119283080.059 7  92947902.727 6
G10  23593487.984 7  23593493.855 6 123984629.095 7  96611428.515 6
G12  23674410.523 6  23674413.156 6 124409911.631 6  96942782.019 6
G25  22225559.305 7  22225564.141 6 116796105.638 7  91009989.189 6
G28  20751835.383 7  20751838.281 6 109051659.149 7  84975337.061 6
G31  21933809.758 7  21933812.180 7 115262971.673 7  89815315.351 7
G32  21258522.602 8  21258526.797 8 111714308.783 8  87050149.500 8
R01  22539354.648 7                 120485811.693 7
R02  19537005.367 8  19537006.172 8 104253270.282 8  81085863.042 8
R03  20797158.383 8  20797159.543 8 111328843.504 8  86589092.158 8
R11  21519512.578 8  21519511.734 7 114993764.003 8  89439614.899 7
R12  20345110.750 8  20345113.754 8 108679968.837 8  84528874.919 8
R13  22795510.719 6                 121726735.077 6
R17  23883724.594 6  23883727.414 6 127806616.199 6  99405138.879 6
R18  21730156.656 7  21730157.188 7 115997094.812 7  90219923.573 7
> 2026 01 01 00 00 30.0000000  0 18
G01  22132645.133 7  22132648.148 5 116307683.633 7  90629483.980 5
G02  23473660.586 6  23473661.828 4 123354887.769 6  96120702.790 4
G03  22677364.953 7  22677370.141 6 119170315.644 7  92860034.366 6
G10  23610618.742 7  23610623.262 6 124074644.104 7  96681570.040 6
G12  23678021.445 7  23678023.988 6 124428884.690 7  96957566.217 6
G25  22217535.898 7  22217540.660 6 116753941.354 7  90977133.919 6
G28  20742766.125 7  20742768.328 6 109003995.479 7  84938196.547 6
G31  21912466.203 7  21912468.801 7 115150811.296 7  89727917.670 7
G32  21265555.359 8  21265559.563 8 111751266.077 8  87078947.394 8
R01  22556202.438 7                 120575864.967 7
R02  19539774.344 8  19539775.809 8 104268050.245 8  81097358.567 8
R03  20778765.805 8  20778766.828 8 111230387.185 8  86512515.044 8
R11  21530733.688 8  21530733.371 7 115053728.791 8  89486254.188 7
R12  20331081.227 8  20331083.320 8 108605024.459 8  84470584.847 8
R13  22767441.508 6                 121576852.838 6
R17  23905527.867 6  23905529.117 5 127923288.691 6  99495884.129 5
R18  21741778.336 7  21741780.777 7 116059142.334 7  90268182.754 7
R19  22152780.969 5  22152776.820 4 118502377.77415  92168550.53614
> 2026 01 01 00 01 00.0000000  0 17
G01  22133312.688 7  22133315.000 5 116311191.631 7  90632217.475 5
G02  23484915.828 7  23484916.258 5 123414032.774 7  96166789.789 5
G03  22655957.211 6  22655962.273 6 119057819.331 6  92772374.913 6
G10  23627789.898 7  23627794.469 6 124164879.833 7  96751883.569 6
G12  23681748.492 7  23681750.516 5 124448471.788 7  96972828.918 5
G25  22209634.266 7  22209639.816 6 116712419.864 7  90944779.523 6
G28  20733800.039 7  20733802.633 6 108956880.260 7  84901483.398 6
G31  21891193.531 7  21891196.047 7 115039020.601 7  89640808.071 7
G32  21272647.727 8  21272651.891 8 111788538.234 8  87107990.627 8
R01  22573083.352 7                 120666105.764 7
R02  19542633.453 8  19542635.012 8 104283305.095 8  81109223.440 8
R03  20760425.680 8  20760426.906 8 111132213.459 8  86436157.699 8
R11  21542079.617 8  21542079.188 7 115114358.259 8  89533410.437 7
R12  20317193.359 8  20317195.105 8 108530833.209 8  84412880.570 8
R13  22739410.750 6                 121427177.479 6
R17  23927343.781 6  23927345.379 6 128040031.252 6  99586683.806 6
R18  21753524.148 7  21753525.168 7 116121834.923 7  90316943.593 7
> 2026 01 01 00 01 30.0000000  0 17
G01  22134095.344 7  22134097.941 5 116315303.118 7  90635421.224 5
G02  23496230.609 7  23496232.461 4 123473496.880 7  96213125.425 4
G03  22634601.453 7  22634606.184 6 118945593.625 7  92684926.330 6
G10  23645002.977 7  23645007.867 6 124255334.381 7  96822367.623 6
G12  23685592.141 7  23685595.480 6 124468671.950 7  96988569.305 6
G25  22201855.883 7  22201860.781 6 116671542.504 7  90912927.060 6
G28  20724938.609 7  20724941.371 6 108910313.918 7  84865197.944 6
G31  21869990.742 7  21869993.441 7 114927601.884 7  89553988.309 7
G32  21279800.398 8  21279804.473 8 111826124.445 8  87137278.590 8
R01  22590000.359 7                 120756533.338 7
R02  19545580.992 8  19545582.543 8 104299034.657 8  81121457.549 8
R03  20742139.758 8  20742140.703 8 111034324.905 8  86360022.159 8
R11  21553548.883 7  21553548.949 7 115175648.251 7  89581080.431 7
R12  20303445.945 8  20303447.191 8 108457397.279 8  84355763.737 8
R13  22711423.313 6                 121277713.045 6
R17  23949173.469 6  23949175.246 5 128156839.624 6  99677534.705 5
R18  21765387.883 7  21765389.949 7 116185168.961 7  90366203.360 7
> 2026 01 01 00 02 00.0000000  0 17
G01  22134992.523 7  22134995.469 5 116320019.970 7  90639096.678 5
G02  23507607.555 7  23507608.648 4 123533280.403 7  96259709.969 4
G03  22613297.875 7  22613302.637 6 118833643.617 7  92597692.574 6
G10  23662256.813 7  23662262.324 5 124346008.602 7  96893022.836 5
G12  23689553.602 7  23689555.711 6 124489486.419 7  97004788.354 6
G25  22194200.242 7  22194205.828 6 116631313.221 7  90881579.559 6
G28  20716182.242 7  20716185.324 6 108864299.612 7  84829342.649 6
G31  21848860.289 7  21848862.832 7 114816559.742 7  89467461.995 7
G32  21287012.492 8  21287017.016 8 111864026.586 8  87166812.697 8
R01  22606951.656 7                 120847149.099 7
R02  19548618.172 8  19548619.707 8 104315241.445 8  81134062.824 8
R03  20723907.984 8  20723908.387 8 110936725.808 8  86284111.769 8
R11  21565142.352 8  21565141.879 7 115237598.372 8  89629263.852 7
R12  20289840.422 8  20289842.160 8 108384721.927 8  84299238.494 8
R13  22683473.477 6                 121128466.257 6
R17  23971015.063 6  23971012.969 5 128273712.286 6  99768435.560 5
R18  21777372.320 7  21777374.902 7 116249143.199 7  90415961.103 7
> 2026 01 01 00 02 30.0000000  0 17
G01  22136005.320 7  22136007.895 5 116325338.602 7  90643241.062 5
G02  23519043.063 7  23519044.641 4 123593378.222 7  96306539.409 4
G03  22592047.375 7  22592052.039 6 118721969.163 7  92510673.545 6
G10  23679552.102 6  23679558.793 5 124436897.958 6  96963845.642 5
G12  23693630.516 7  23693632.887 6 124510910.941 7  97021482.788 6
G25  22186667.383 7  22186673.027 6 116591730.547 7  90850735.948 6
G28  20707530.961 7  20707533.508 6 108818835.102 7  84793915.764 6
G31  21827801.266 7  21827804.027 7 114705894.112 7  89381229.058 7
G32  21294284.930 8  21294289.441 8 111902241.163 8  87196590.290 8
R01  22623936.813 7                 120937948.763 7
R02  19551744.492 8  19551745.621 8 104331922.349 8  81147036.857 8
R03  20705727.930 8  20705730.070 8 110839415.592 8  86208426.065 8
R11  21576857.438 8  21576857.355 7 115300202.096 8  89677955.627 7
R12  20276378.688 8  20276379.664 8 108312806.887 8  84243304.584 8
R13  22655565.398 6                 120979438.165 6
R17  23992864.148 6  23992865.941 5 128390642.150 6  99859380.930 5
R18  21789476.477 7  21789477.535 7 116313751.311 7  90466211.796 7
> 2026 01 01 00 03 00.0000000  0 18
G01  22137131.008 7  22137134.016 5 116331257.891 7  90647853.482 5
G02  23530539.859 7  23530540.648 4 123653787.771 7  96353611.769 4
G03  22570849.305 7  22570853.801 6 118610572.549 7  92423871.003 6
G10  23696889.656 7  23696893.996 5 124528000.321 7  97034834.468 5
G12  23697823.125 7  23697826.176 6 124532944.418 7  97038651.749 6
G25  22179258.531 7  22179263.891 6 116552795.505 7  90820396.957 6
G28  20698984.047 7  20698986.508 6 108773920.600 7  84758917.450 6
G31  21806814.359 7  21806816.836 7 114595606.799 7  89295290.908 7
G32  21301615.930 8  21301620.508 8 111940767.147 8  87226610.525 8
R01  22640958.180 7                 121028930.769 7
R02  19554959.078 8  19554960.281 8 104349077.028 8  81160379.382 8
R03  20687603.672 8  20687605.711 8 110742394.778 8  86132965.468 8
R11  21588694.547 8  21588695.074 7 115363456.370 8  89727153.421 7
R12  20263058.484 8  20263059.773 8 108241654.519 8  84187963.874 8
R13  22627698.141 6                 120830632.973 6
R17  24014725.969 6  24014727.328 5 128507625.175 6  99950367.731 5
R18  21801697.547 7  21801698.637 7 116378988.782 7  90516952.060 7
R19  22102524.789 5  22102519.020 5 118233451.89115  91959445.55315
> 2026 01 01 00 03 30.0000000  0 17
G01  22138372.297 7  22138374.660 5 116337779.138 7  90652934.952 5
G02  23542094.406 7  23542095.375 4 123714508.695 7  96400926.744 4
G03  22549704.359 7  22549709.711 6 118499458.559 7  92337288.683 6
G10  23714266.352 7  23714270.859 6 124619316.166 7  97105989.665 6
G12  23702131.867 7  23702134.129 6 124555587.796 7  97056295.903 6
G25  22171973.602 7  22171978.855 6 116514511.578 7  90790565.354 6
G28  20690542.422 7  20690544.453 6 108729558.753 7  84724349.788 6
G31  21785900.219 7  21785902.781 7 114485702.572 7  89209651.271 7
G32  21309007.094 8  21309011.203 8 111979606.032 8  87256874.580 8
R01  22658012.594 7                 121120096.466 7
R02  19558263.180 8  19558264.297 8 104366707.611 8  81174092.063 8
R03  20669535.492 8  20669536.469 7 110645668.860 8  86057734.191 7
R11  21600653.078 7  21600653.266 7 115427359.249 7  89776855.627 7
R12  20249882.336 8  20249883.906 8 108171269.374 8  84133219.890 8
R13  22599874.758 6                 120682056.508 6
R17  24036596.383 6  24036598.910 5 128624659.226 6 100041394.178 5
R18  21814037.492 7  21814037.762 7 116444854.594 7  90568180.961 7
> 2026 01 01 00 04 00.0000000  0 17
G01  22139727.586 7  22139729.738 5 116344899.029 7  90658482.904 5
G02  23553707.688 7  23553708.363 4 123775535.961 7  96448480.421 4
G03  22528614.023 7  22528619.309 6 118388627.306 7  92250926.685 6
G10  23731683.047 7  23731688.270 6 124710841.227 7  97177307.881 6
G12  23706556.703 7  23706558.371 6 124578837.195 7  97074412.336 6
G25  22164812.000 7  22164817.289 6 116476877.626 7  90761240.216 6
G28  20682204.992 7  20682207.586 6 108685747.639 7  84690211.272 6
G31  21765058.914 7  21765061.461 7 114376180.941 7  89124309.750 7
G32  21316456.578 8  21316460.938 8 112018754.630 8  87287379.982 8
R01  22675100.008 7                 121211442.052 7
R02  19561655.539 8  19561656.801 8 104384811.271 8  81188172.687 8
R03  20651520.281 8  20651522.008 7 110549236.146 8  85982730.963 7
R11  21612733.469 8  21612732.063 7 115491905.157 8  89827057.998 7
R12  20236849.000 8  20236851.043 8 108101651.455 8  84079072.639 8
R13  22572094.469 6                 120533710.646 6
R17  24058474.359 6  24058475.547 5 128741737.390 6 100132454.919 5
R18  21826491.617 7  21826493.402 7 116511342.272 7  90619893.569 7
> 2026 01 01 00 04 30.0000000  0 17
G01  22141196.727 7  22141198.738 5 116352619.082 7  90664498.531 5
G02  23565378.797 7  23565379.836 4 123836869.848 7  96496273.063 4
G03  22507578.852 7  22507583.496 6 118278083.925 7  92164789.002 6
G10  23749138.938 6  23749144.613 5 124802576.215 6  97248789.633 5
G12  23711096.148 7  23711098.652 6 124602693.947 7  97093001.987 6
G25  22157775.203 7  22157779.828 6 116439897.336 7  90732424.402 6
G28  20673973.484 7  20673976.141 6 108642490.178 7  84656504.160 6
G31  21744291.164 7  21744294.160 7 114267046.519 7  89039269.971 7
G32  21323965.844 8  21323969.664 8 112058214.678 8  87318128.064 8
R01  22692221.883 7                 121302968.945 7
R02  19565137.469 8  19565138.777 8 104403390.537 8  81202623.215 8
R03  20633561.625 8  20633563.367 8 110453101.209 8  85907959.366 8
R11  21624931.453 7  21624931.281 7 115557093.180 7  89877759.817 7
R12  20223960.539 8  20223962.801 8 108032805.409 8  84025525.733 8
R13  22544358.789 6                 120385602.271 6
R17  24080361.852 6  24080362.859 5 128858858.687 6 100223549.169 5
R18  21839064.383 7  21839065.031 7 116578450.374 7  90672088.746 7
> 2026 01 01 00 05 00.0000000  0 18
G01  22142779.250 7  22142781.637 5 116360933.676 7  90670977.430 5
G02  23577107.156 7  23577108.668 4 123898503.112 7  96544298.958 4
G03  22486596.766 7  22486602.098 6 118167826.179 7  92078873.885 6
G10  23766634.836 7  23766639.480 5 124894514.543 7  97320429.870 5
G12  23715750.297 7  23715752.691 6 124627152.523 7  97112060.653 6
G25  22150861.820 7  22150866.590 6 116403567.116 7  90704115.151 6
G28  20665846.711 7  20665849.086 6 108599782.026 7  84623225.093 6
G31  21723597.023 7  21723599.348 7 114158297.194 7  88954530.252 7
G32  21331532.664 8  21331536.988 8 112097980.757 8  87349114.617 8
R01  22709377.383 7                 121394671.220 7
R02  19568707.375 8  19568708.605 8 104422440.300 8  81217439.687 8
R03  20615657.703 8  20615659.512 8 110357261.391 8  85833417.284 8
R11  21637249.563 8  21637248.945 7 115622914.933 8  89928954.471 7
R12  20211217.109 8  20211219.195 8 107964729.100 8  83972577.506 8
R13  22516667.352 6                 120237730.450 6
R17  24102253.250 5  24102257.395 5 128976013.890 5 100314669.858 5
R18  21851749.648 7  21851751.020 7 116646170.275 7  90724759.744 7
R19  22064985.938 5  22064985.355 5 118032693.06815
> 2026 01 01 00 05 30.0000000  0 18
G01  22144474.070 7  22144476.508 5 116369841.145 7  90677918.310 5
G02  23588892.102 7  23588892.875 4 123960432.411 7  96592555.532 4
G03  22465671.258 7  22465675.484 6 118057855.995 7  91993182.855 6
G10  23784168.625 7  23784173.066 5 124986653.679 7  97392226.591 5
G12  23720518.930 7  23720520.891 5 124652209.877 7  97131585.862 5
G25  22144071.703 7  22144076.352 6 116367887.480 7  90676312.847 6
G28  20657824.273 7  20657826.461 6 108557622.908 7  84590373.837 6
G31  21702976.211 7  21702978.773 7 114049934.393 7  88870091.715 7
G32  21339158.617 8  21339162.297 8 112138051.365 8  87380338.465 8
R01  22726564.398 7                 121486546.895 7
R02  19572365.109 8  19572366.277 8 104441959.597 8  81232621.371 8
R03  20597810.250 8  20597810.926 8 110261717.345 8  85759105.255 8
R11  21649684.414 7  21649684.254 7 115689366.177 7  89980638.808 7
R12  20198617.242 8  20198619.313 8 107897423.971 8  83920229.080 8
R13  22489020.102 6                 120090098.500 6
R17  24124153.938 6  24124156.137 6 129093198.335 6 100405813.280 6
R18  21864549.953 7  21864551.676 7 116714497.564 7  90777903.161 7
R19  22055976.766 6  22055973.988 5 117984492.312 6  91765793.65115
> 2026 01 01 00 06 00.0000000  0 18
G01  22146282.164 7  22146285.055 5 116379346.012 7  90685324.669 5
G02  23600733.539 7  23600734.453 4 124022660.999 7  96641045.321 4
G03  22444800.945 7  22444804.492 5 117948181.421 7  91907722.142 5
G10  23801740.180 7  23801745.797 5 125078997.419 7  97464182.702 5
G12  23725402.406 7  23725404.336 6 124677870.339 7  97151581.069 6
G25  22137407.406 7  22137412.293 6 116332865.035 7  90649022.636 6
G28  20649906.750 7  20649909.234 6 108516018.726 7  84557954.999 6
G31  21682430.258 7  21682432.676 7 113941965.843 7  88785960.400 7
G32  21346842.125 8  21346846.500 8 112178431.290 8  87411803.336 8
R01  22743784.180 7                 121578600.411 7
R02  19576112.289 8  19576113.500 8 104461953.862 8  81248172.455 8
R03  20580017.781 8  20580018.789 7 110166476.979 8  85685029.425 7
R11  21662238.391 8  21662237.863 7 115756449.124 8  90032814.425 7
R12  20186163.703 8  20186165.223 8 107830898.026 8  83868486.702 8
R13  22461418.703 6                 119942716.043 6
R17  24146059.578 6  24146060.383 5 129210413.399 6 100496980.504 5
R18  21877463.820 7  21877465.637 7 116783433.786 7  90831520.226 7
R19  22047115.898 6  22047115.008 6 117937096.115 6  91728929.854 6
> 2026 01 01 00 06 30.0000000  0 18
G01  22148204.164 7  22148206.906 5 116389445.568 7  90693194.439 5
G02  23612631.531 7  23612632.797 4 124085184.704 7  96689765.072 4
G03  22423986.398 7  22423989.488 5 117838803.534 7  91822492.590 5
G10  23819352.328 7  23819356.926 6 125171542.220 7  97536295.510 6
G12  23730398.398 7  23730401.785 5 124704131.276 7  97172044.098 5
G25  22130867.508 7  22130872.777 6 116298499.314 7  90622244.175 6
G28  20642095.227 8  20642097.762 6 108474968.226 8  84525967.602 6
G31  21661960.047 7  21661962.055 7 113834392.096 7  88702136.715 7
G32  21354584.539 8  21354589.016 8 112219118.199 8  87443507.415 8
R01  22761038.805 7                 121670828.979 7
R02  19579948.125 8  19579948.910 8 104482421.255 8  81264091.552 8
R03  20562283.469 8  20562284.469 7 110071540.143 8  85611189.667 7
R11  21674909.586 7  21674908.973 7 115824158.368 7  90085477.146 7
R12  20173855.375 8  20173857.664 8 107765151.740 8  83817350.712 8
R13  22433867.930 6                 119795585.429 6
R17  24167968.063 6  24167969.875 6 129327653.624 6 100588167.238 6
R18  21890491.484 7  21890492.137 7 116852973.468 7  90885606.617 7
R19  22038405.891 6  22038403.563 5 117890504.279 6  91692691.769 5
> 2026 01 01 00 07 00.0000000  0 18
G01  22150239.109 7  22150241.566 5 116400138.166 7  90701526.329 5
G02  23624584.789 7  23624586.043 4 124148000.579 7  96738712.494 4
G03  22403229.547 7  22403232.355 5 117729724.171 7  91737495.655 5
G10  23836999.555 7  23837005.266 5 125264285.582 7  97608563.040 5
G12  23735510.672 7  23735512.879 5 124730990.611 7  97192973.429 5
G25  22124453.328 7  22124458.387 6 116264790.690 7  90595977.721 6
G28  20634388.688 7  20634391.316 6 108434471.117 7  84494411.415 6
G31  21641564.688 7  21641567.234 7 113727214.640 7  88618621.829 7
G32  21362384.867 8  21362389.750 8 112260110.630 8  87475449.558 8
R01  22778325.469 7                 121763230.686 7
R02  19583872.000 8  19583872.832 8 104503360.686 8  81280377.775 8
R03  20544605.367 8  20544606.508 7 109976908.654 8  85537587.403 7
R11  21687696.234 7  21687696.047 7 115892489.489 7  90138623.583 7
R12  20161693.820 8  20161695.754 8 107700186.611 8  83766822.295 8
R13  22406362.516 6                 119648710.393 6
R17  24189881.398 6  24189882.793 6 129444914.192 6 100679369.848 6
R18  21903630.594 7  21903632.172 7 116923111.852 7  90940158.657 7
R19  22029846.484 6  22029845.109 6 117844717.690 6  91657080.048 6
> 2026 01 01 00 07 30.0000000  0 18
G01  22152386.305 7  22152389.129 5 116411422.517 7  90710319.301 5
G02  23636593.602 7  23636594.293 4 124211105.671 7  96787885.255 4
G03  22382530.617 7  22382533.438 5 117620945.760 7  91652733.244 5
G10  23854685.383 6  23854691.043 5 125357225.625 6  97680983.794 5
G12  23740734.117 7  23740737.141 5 124758446.600 7  97214367.693 5
G25  22118163.820 7  22118168.789 6 116231739.979 7  90570223.923 6
G28  20626787.438 7  20626790.371 6 108394527.477 7  84463286.513 6
G31  21621245.250 7  21621247.551 7 113620435.794 7  88535417.550 7
G32  21370243.586 8  21370248.336 8 112301407.646 8  87507629.029 8
R01  22795642.188 7                 121855804.080 7
R02  19587884.203 8  19587885.285 8 104524771.887 8  81297030.912 8
R03  20526984.313 8  20526985.734 7 109882583.660 8  85464223.515 7
R11  21700599.016 7  21700599.418 7 115961439.118 7  90192251.072 7
R12  20149678.359 8  20149680.648 8 107636004.667 8  83716903.010 8
R13  22378905.461 6                 119502094.577 6
R17  24211794.766 5  24211798.922 6 129562190.615 5 100770584.758 6
R18  21916881.625 7  21916882.887 7 116993844.980 7  90995173.276 7
R19  22021438.539 5  22021436.828 6 117799737.594 5  91622095.432 6
> 2026 01 01 00 08 00.0000000  0 18
G01  22154646.742 7  22154649.574 5 116423301.099 7  90719575.319 5
G02  23648657.961 7  23648658.809 4 124274501.208 7  96837284.363 4
G03  22361887.648 7  22361892.008 5 117512474.438 7  91568210.130 5
G10  23872408.898 6  23872414.973 5 125450363.904 6  97753559.069 5
G12  23746073.945 7  23746075.730 5 124786501.506 7  97236228.699 5
G25  22112000.656 7  22112005.508 6 116199351.848 7  90544986.432 6
G28  20619292.570 7  20619295.313 6 108355141.229 7  84432595.936 6
G31  21601002.758 7  21601005.332 7 113514061.055 7  88452528.161 7
G32  21378160.711 8  21378165.031 8 112343012.109 8  87540048.096 8
R01  22812992.156 7                 121948551.773 7
R02  19591986.195 8  19591987.012 8 104546658.248 8  81314053.642 8
R03  20509421.422 8  20509423.102 7 109788570.355 8  85391102.054 7
R11  21713617.414 7  21713617.609 7 116031006.908 7  90246359.339 7
R12  20137811.898 8  20137813.672 8 107572611.666 8  83667597.361 8
R13  22351500.500 6                 119355745.867 6
R17  24233716.945 5  24233717.789 6 129679482.848 5 100861812.059 6
R18  21930243.625 7  21930244.844 7 117065172.325 7  91050650.079 7
R19  22013183.008 5  22013180.055 6 117755569.152 5  91587742.062 6
> 2026 01 01 00 08 30.0000000  0 17
G01  22157020.047 7  22157023.316 5 116435773.669 7  90729294.214 5
G02  23660776.063 7  23660777.297 4 124338185.426 7  96886908.423 4
G03  22341305.883 7  22341309.770 5 117404313.775 7  91483929.075 5
G10  23890170.563 6  23890176.000 5 125543699.594 6  97826288.144 5
G12  23751526.492 6  23751528.559 5 124815154.813 6  97258555.925 5
G25  22105963.703 7  22105968.895 6 116167628.127 7  90520266.646 6
G28  20611903.750 7  20611906.578 6 108316313.552 7  84402340.614 6
G31  21580838.164 7  21580840.281 7 113408093.535 7  88369956.086 7
G32  21386136.148 8  21386140.699 8 112384924.135 8  87572706.804 8
R01  22830375.023 7                 122041473.376 7
R02  19596176.586 8  19596177.352 8 104569020.427 8  81331446.441 8
R03  20491918.047 8  20491919.090 7 109694872.017 8  85318225.575 7
R11  21726751.359 8  21726751.805 7 116101190.712 8  90300946.729 7
R12  20126092.945 8  20126094.496 8 107510010.685 8  83618907.729 8
R13  22324144.625 6                 119209669.375 6
R17  24255636.578 5  24255639.691 5 129796787.838 5 100953049.158 5
R18  21943716.016 7  21943716.914 7 117137090.946 7  91106586.756 7
> 2026 01 01 00 09 00.0000000  0 17
G01  22159505.273 7  22159508.809 5 116448836.695 7  90739473.174 5
G02  23672949.320 7  23672949.469 4 124402153.397 7  96936753.542 4
G03  22320782.398 7  22320785.980 5 117296463.915 7  91399890.183 5
G10  23907968.461 6  23907973.961 5 125637228.384 6  97899167.704 5
G12  23757091.930 6  23757093.582 5 124844402.324 6  97281346.201 5
G25  22100052.797 7  22100057.707 6 116136567.343 7  90496063.460 6
G28  20604621.320 7  20604623.828 6 108278042.262 7  84372518.842 6
G31  21560750.742 7  21560752.691 7 113302533.155 7  88287701.258 7
G32  21394170.508 8  21394174.258 8 112427140.560 8  87605602.724 8
R01  22847789.758 7                 122134565.332 7
R02  19600455.594 8  19600456.945 8 104591855.737 8  81349207.231 8
R03  20474472.641 8  20474474.266 7 109601487.780 8  85245593.402 7
R11  21739999.992 7  21739999.992 7 116171984.419 7  90356008.537 7
R12  20114522.211 8  20114523.512 8 107448201.246 8  83570833.730 8
R13  22296839.984 6                 119063866.675 6
R17  24277558.313 6  24277562.801 5 129914099.056 6 101044291.305 5
R18  21957298.469 7  21957298.957 7 117209594.315 7  91162978.237 7
> 2026 01 01 00 09 30.0000000  0 17
G01  22162103.922 7  22162106.590 5 116462487.038 7  90750109.811 5
G02  23685174.383 6  23685176.227 4 124466400.855 6  96986816.496 4
G03  22300318.633 7  22300322.809 5 117188925.425 7  91316093.937 5
G10  23925802.766 6  23925808.258 5 125730946.448 6  97972194.715 5
G12  23762770.109 7  23762771.801 5 124874240.399 7  97304596.613 5
G25  22094268.344 7  22094273.719 6 116106168.450 7  90472376.030 6
G28  20597442.914 7  20597446.699 6 108240325.698 7  84343129.301 6
G31  21540740.539 7  21540742.895 7 113197379.871 7  88205763.645 7
G32  21402261.258 8  21402265.027 8 112469658.591 8  87638733.648 8
R01  22865236.492 7                 122227824.394 7
R02  19604823.289 8  19604824.535 8 104615161.726 8  81367334.120 8
R03  20457086.594 8  20457087.551 7 109508417.527 8  85173205.415 7
R11  21753361.508 7  21753361.102 7 116243381.451 7  90411539.521 7
R12  20103098.711 8  20103100.723 8 107387183.219 8  83523375.277 8
R13  22269586.227 6                 118918339.630 6
R17  24299479.586 5  24299483.184 4 130031410.74715 101135533.54514
R18  21970989.344 7  21970990.883 7 117282676.306 7  91219819.748 7
> 2026 01 01 00 10 00.0000000  0 18
G01  22164812.438 7  22164814.953 5 116476722.699 7  90761202.508 5
G02  23697453.805 7  23697454.426 4 124530924.588 7  97037094.709 4
G03  22279913.992 7  22279918.379 5 117081700.101 7  91232541.713 5
G10  23943671.773 6  23943677.863 5 125824851.108 6  98045367.143 5
G12  23768559.688 6  23768562.645 5 124904666.921 6  97328305.604 5
G25  22088609.625 7  22088614.590 6 116076431.564 7  90449204.443 6
G28  20590371.867 7  20590374.848 6 108203163.160 7  84314171.521 6
G31  21520808.063 7  21520810.465 7 113092635.033 7  88124144.309 7
G32  21410409.227 8  21410413.219 8 112512476.679 8  87672098.394 8
R01  22882712.648 7                 122321248.498 7
R02  19609278.945 8  19609279.859 8 104638937.455 8  81385826.327 8
R03  20439759.344 8  20439760.320 7 109415662.717 8  85101062.761 7
R11  21766834.211 7  21766833.918 7 116315378.157 7  90467537.001 7
R12  20091825.555 8  20091826.656 8 107326958.065 8  83476533.502 8
R13  22242386.531 6                 118773091.298 6
R17  24321410.805 4  24321409.180 4 130148723.02614 101226820.43914
R18  21984787.773 7  21984789.273 7 117356332.060 7  91277107.549 7
R19  21981671.398 5  21981671.531 6 117586964.43615  91456644.51816
> 2026 01 01 00 10 30.0000000  0 17
G01  22167632.617 7  22167635.805 5 116491543.289 7  90772751.013 5
G02  23709785.320 7  23709785.184 4 124595722.654 7  97087586.689 4
G03  22259570.148 6  22259574.094 5 116974791.495 6  91149236.309 5
G10  23961577.203 6  23961583.043 5 125918941.380 6  98118684.203 5
G12  23774461.672 6  23774463.871 5 124935681.435 6  97352472.746 5
G25  22083076.805 7  22083082.340 6 116047358.454 7  90426550.068 6
G28  20583406.859 8  20583408.938 6 108166555.847 8  84285646.367 6
G31  21500954.125 7  21500956.453 7 112988301.950 7  88042845.815 7
G32  21418613.742 7  21418618.441 8 112555595.003 7  87705697.073 8
R01  22900220.961 7                 122414837.363 7
R02  19613822.516 8  19613823.586 8 104663183.348 8  81404684.252 8
R03  20422490.719 8  20422492.648 7 109323225.876 8  85029167.444 7
R11  21780419.336 7  21780418.758 7 116387971.229 7  90523998.235 7
R12  20080699.383 8  20080701.078 8 107267528.279 8  83430310.335 8
R13  22215239.297 6                 118628127.652 6
R18  21998693.656 7  21998693.777 7 117430558.490 7  91334839.172 7
R19  21974176.133 5  21974174.160 6 117546860.141 5  91425452.300 6
> 2026 01 01 00 11 00.0000000  0 17
G01  22170564.391 7  22170566.699 5 116506945.404 7  90784752.668 5
G02  23722166.156 7  23722166.574 4 124660790.271 7  97138288.717 4
G03  22239286.492 7  22239290.656 6 116868199.898 7  91066177.946 6
G10  23979516.328 6  23979521.668 5 126013213.227 6  98192142.736 5
G12  23780475.023 6  23780476.895 5 124967279.816 6  97377094.865 5
G25  22077671.008 7  22077675.570 6 116018947.620 7  90404411.766 6
G28  20576545.898 8  20576547.805 6 108130501.762 8  84257552.251 6
G31  21481178.586 7  21481180.902 7 112884380.418 7  87961868.013 7
G32  21426875.859 8  21426880.324 8 112599010.517 8  87739527.333 8
R01  22917759.047 7                 122508587.573 7
R02  19618453.813 8  19618455.043 8 104687896.859 8  81423905.861 8
R03  20405283.016 8  20405284.277 7 109231106.758 8  84957519.234 7
R11  21794113.563 7  21794114.512 7 116461155.351 7  90580919.206 7
R12  20069722.516 8  20069724.570 8 107208893.680 8  83384705.665 8
R13  22188146.641 6                 118483449.678 6
R18  22012703.461 7  22012704.977 7 117505349.244 7  91393009.733 7
R19  21966830.680 6  21966830.133 6 117507569.029 6  91394892.587 6
> 2026 01 01 00 11 30.0000000  0 17
G01  22173605.070 7  22173608.699 5 116522930.367 7  90797208.458 5
G02  23734600.156 6  23734600.164 4 124726127.571 6  97189200.857 4
G03  22219064.039 7  22219068.781 6 116761930.592 7  90983370.711 6
G10  23997490.258 6  23997495.602 5 126107667.316 6  98265743.299 5
G12  23786599.148 6  23786601.605 5 124999462.751 6  97402172.479 5
G25  22072391.141 7  22072396.012 6 115991202.559 7  90382792.247 6
G28  20569790.906 8  20569792.680 6 108095003.559 8  84229891.336 6
G31  21461482.359 7  21461484.535 7 112780875.088 7  87881214.532 7
G32  21435194.344 8  21435198.777 8 112642725.059 8  87773590.608 8
R01  22935327.367 7                 122602500.567 7
R02  19623173.258 8  19623174.332 8 104713080.370 8  81443493.028 8
R03  20388134.328 8  20388135.730 8 109139309.789 8  84886121.587 8
R11  21807920.758 7  21807919.883 7 116534928.296 7  90638298.180 7
R12  20058895.695 8  20058897.652 8 107151058.746 8  83339722.961 8
R13  22161106.828 6                 118339064.437 6
R18  22026820.445 7  22026820.777 7 117580702.908 7  91451618.089 7
R19  21959637.711 6  21959636.711 5 117469094.846 6  91364968.260 5
> 2026 01 01 00 12 00.0000000  0 17
G01  22176758.375 7  22176761.063 5 116539497.371 7  90810117.806 5
G02  23747083.734 6  23747084.750 4 124791732.501 6  97240321.585 4
G03  22198903.797 7  22198908.270 6 116655986.602 7  90900816.963 6
G10  24015498.617 6  24015504.559 5 126202302.240 6  98339484.782 5
G12  23792834.344 6  23792836.793 5 125032229.599 6  97427705.080 5
G25  22067238.125 7  22067243.168 7 115964124.474 7  90361692.474 7
G28  20563141.523 8  20563143.520 7 108060061.928 8  84202664.081 7
G31  21441865.188 7  21441867.484 7 112677788.408 7  87800887.269 7
G32  21443569.531 8  21443574.063 8 112686738.324 8  87807886.640 8
R01  22952926.422 6                 122696575.756 6
R02  19627980.883 8  19627981.867 8 104738733.928 8  81463445.792 8
R03  20371046.641 8  20371048.047 7 109047837.212 8  84814976.255 7
R11  21821835.594 8  21821834.945 7 116609288.117 8  90696133.604 7
R12  20048219.414 8  20048221.141 8 107094025.725 8  83295363.947 8
R13  22134124.117 6                 118194976.343 6
R18  22041040.773 7  22041042.316 7 117656615.735 7  91510661.356 7
R19  21952597.945 6  21952597.422 5 117431439.018 6  91335680.368 5
> 2026 01 01 00 12 30.0000000  0 17
G01  22180019.969 7  22180023.340 5 116556639.923 7  90823475.637 5
G02  23759617.039 6  23759617.777 4 124857597.586 6  97291645.008 4
G03  22178805.477 7  22178808.477 6 116550365.417 7  90818514.738 6
G10  24033539.945 6  24033546.453 5 126297111.113 6  98413361.760 5
G12  23799179.523 6  23799181.184 5 125065573.453 6  97453687.298 5
G25  22062211.766 7  22062216.277 6 115937709.049 7  90341109.028 6
G28  20556596.977 8  20556599.590 6 108025671.865 8  84175866.629 6
G31  21422327.766 7  21422330.191 7 112575117.695 7  87720884.121 7
G32  21452001.164 8  21452005.082 8 112731044.403 8  87842410.852 8
R01  22970554.477 7                 122790806.265 7
R02  19632875.359 8  19632876.484 8 104764852.143 8  81483759.954 8
R03  20354019.367 8  20354020.086 7 108956685.926 8  84744080.815 7
R11  21835857.945 7  21835858.805 7 116684225.171 7  90754417.956 7
R12  20037691.500 8  20037693.789 8 107037791.132 8  83251625.946 8
R13  22107196.273 6                 118051184.130 6
R18  22055365.242 7  22055366.668 7 117733078.396 7  91570132.302 7
R19  21945711.578 6  21945709.609 4 117394597.270 6  91307025.611 4
> 2026 01 01 00 13 00.0000000  0 17
G01  22183392.227 7  22183394.754 5 116574359.675 7  90837283.210 5
G02  23772200.453 6  23772200.969 4 124923722.859 6  97343171.169 4
G03  22158768.539 7  22158772.402 6 116445072.595 7  90736468.374 6
G10  24051614.992 6  24051620.949 5 126392094.802 6  98487374.993 5
G12  23805634.750 6  23805636.047 5 125099495.736 6  97480120.275 5
G25  22057311.867 7  22057316.996 6 115911959.867 7  90321044.739 6
G28  20550158.055 8  20550160.621 6 107991836.371 8  84149501.325 6
G31  21402870.563 7  21402872.598 7 112472868.001 7  87641209.055 7
G32  21460488.313 8  21460492.570 8 112775645.521 8  87877164.953 8
R01  22988210.602 7                 122885194.284 7
R02  19637857.141 8  19637858.457 8 104791437.530 8  81504437.475 8
R03  20337052.219 8  20337053.172 8 108865860.434 8  84673438.741 8
R11  21849990.883 7  21849989.809 7 116759739.108 7  90813151.028 7
R12  20027315.492 8  20027316.633 8 106982359.810 8  83208512.693 8
R13  22080326.328 6                 117907695.465 6
R18  22069791.680 7  22069793.594 7 117810089.712 7  91630029.967 7
R19  21938977.281 6  21938976.773 5 117358573.545 6  91279007.113 5
> 2026 01 01 00 13 30.0000000  0 17
G01  22186874.891 7  22186877.543 5 116592660.605 7  90851543.652 5
G02  23784833.469 6  23784834.926 4 124990110.926 6  97394902.116 4
G03  22138796.055 6  22138799.961 5 116340115.914 6  90654683.972 5
G10  24069724.102 6  24069729.277 5 126487256.820 6  98561527.179 5
G12  23812199.766 6  23812203.859 5 125133999.794 6  97507006.498 5
G25  22052539.336 7  22052544.871 6 115886882.890 7  90301504.254 6
G28  20543825.969 8  20543828.617 6 107958560.893 8  84123572.388 6
G31  21383494.461 7  21383496.379 7 112371046.467 7  87561867.616 7
G32  21469032.563 8  21469037.137 8 112820546.110 8  87912152.427 8
R01  23005898.305 7                 122979743.984 7
R02  19642928.250 8  19642928.691 8 104818495.224 8  81525482.344 8
R03  20320147.133 8  20320148.770 8 108775368.563 8  84603056.201 8
R11  21864230.508 7  21864230.199 7 116835830.816 7  90872333.473 7
R12  20017089.953 8  20017091.551 8 106927738.664 8  83166029.589 8
R13  22053513.914 6                 117764519.135 6
R18  22084322.016 7  22084322.574 7 117887650.946 7  91690355.337 7
R19  21932396.930 7  21932395.652 6 117323374.449 7  91251630.000 6
> 2026 01 01 00 14 00.0000000  0 17
G01  22190466.242 7  22190469.832 5 116611535.083 7  90866251.027 5
G02  23797515.133 6  23797515.852 4 125056753.664 6  97446831.502 4
G03  22118886.281 6  22118890.531 6 116235491.962 6  90573158.823 6
G10  24087864.313 6  24087870.129 5 126582589.092 6  98635812.047 5
G12  23818875.852 6  23818877.391 4 125169077.218 6  97534339.554 4
G25  22047894.758 7  22047899.602 6 115862472.636 7  90282483.274 6
G28  20537598.852 7  20537601.719 6 107925839.284 7  84098075.024 6
G31  21364198.938 7  21364201.176 7 112269648.866 7  87482856.522 7
G32  21477632.266 8  21477637.004 8 112865739.228 8  87947367.829 8
R01  23023615.055 6                 123074447.728 6
R02  19648085.766 8  19648086.598 8 104846018.484 8  81546889.313 8
R03  20303304.297 8  20303305.598 8 108685206.165 8  84532929.888 8
R11  21878574.641 7  21878575.469 7 116912491.112 7  90931958.130 7
R12  20007015.258 8  20007017.434 8 106873923.188 8  83124173.131 8
R13  22026759.195 6                 117621653.186 6
R18  22098953.164 7  22098954.063 7 117965751.543 7  91751100.227 7
R19  21925970.016 7  21925969.125 6 117288994.243 7  91224889.860 6
> 2026 01 01 00 14 30.0000000  0 18
G01  22194167.852 7  22194170.629 5 116630984.757 7  90881406.610 5
G02  23810246.109 7  23810246.273 4 125123651.151 7  97498959.400 4
G03  22099041.742 7  22099046.105 6 116131206.311 7  90491897.289 6
G10  24106037.945 6  24106044.727 5 126678092.820 6  98710230.458 5
G12  23825660.398 6  23825661.801 4 125204730.039 6  97562120.959 4
G25  22043377.516 7  22043381.348 7 115838732.802 7  90263984.724 7
G26  24942740.336 5  24942746.133 3 131074997.74515 102136371.66513
G28  20531478.461 7  20531481.156 6 107893674.726 7  84073011.748 6
G31  21344985.219 7  21344987.621 7 112168680.569 7  87404179.947 7
G32  21486288.836 8  21486293.113 8 112911227.199 8  87982812.999 8
R01  23041359.875 6                 123169307.550 6
R02  19653331.781 8  19653332.434 8 104874010.094 8  81568660.555 8
R03  20286523.484 8  20286524.508 8 108595377.018 8  84463062.765 8
R11  21893028.445 8  21893027.832 7 116989719.092 8  90992024.323 7
R12  19997092.984 8  19997094.504 8 106820918.030 8  83082946.902 8
R13  22000063.492 6                 117479104.875 6
R18  22113684.727 7  22113686.125 7 118044390.547 7  91812263.861 7
R19  21919697.789 7  21919696.172 6 117255436.908 7  91198789.680 6
> 2026 01 01 00 15 00.0000000  0 18
G01  22197977.188 7  22197980.355 5 116651005.526 7  90897007.189 5
G02  23823023.789 7  23823024.621 4 125190798.491 7  97551281.950 4
G03  22079261.063 7  22079265.695 6 116027258.879 7  90410899.290 6
G10  24124244.836 6  24124249.820 5 126773763.220 6  98784778.822 5
G12  23832553.344 6  23832554.707 4 125240953.793 6  97590347.275 4
G25  22038986.281 7  22038992.016 6 115815661.237 7  90246006.884 6
G26  24917535.102 5
G28  20525463.563 8  20525465.734 6 107862064.454 8  84048380.375 6
G31  21325853.055 7  21325855.555 7 112068140.845 7  87325837.313 7
G32  21495000.297 7  21495004.434 8 112957006.458 7  88018485.137 8
R01  23059135.219 7                 123264319.094 7
R02  19658664.031 8  19658665.141 8 104902466.945 8  81590793.663 8
R03  20269804.266 8  20269806.469 8 108505881.694 8  84393455.295 8
R11  21907584.344 7  21907585.242 7 117067507.726 7  91052526.593 7
R12  19987321.508 8  19987323.520 8 106768722.023 8  83042350.012 8
R13  21973429.391 6                 117336875.608 6
R18  22128516.055 7  22128516.918 7 118123560.744 7  91873840.677 7
R19  21913576.172 6  21913576.438 6 117222700.635 6  91173328.082 6
> 2026 01 01 00 15 30.0000000  0 18
G01  22201895.648 7  22201898.992 5 116671595.028 7  90913050.958 5
G02  23835847.938 6  23835848.977 4 125258191.609 6  97603796.071 4
G03  22059545.203 7  22059549.883 7 115923651.424 7  90330166.183 7
G10  24142480.781 6  24142486.258 5 126869597.698 6  98859454.984 5
G12  23839554.375 6  23839555.891 4 125277745.395 6  97619016.018 4
G25  22034723.523 7  22034728.184 7 115793257.650 7  90228549.560 7
G26  24892329.539 5  24892336.680 3 130810099.96415 101929957.86913
G28  20519552.930 7  20519555.883 6 107831007.693 7  84024180.301 6
G31  21306803.281 8  21306805.324 7 111968030.743 8  87247829.465 7
G32  21503766.672 8  21503771.000 8 113003075.428 8  88054383.036 8
R01  23076937.273 6                 123359480.682 6
R02  19664083.938 8  19664085.457 8 104931387.671 8  81613287.550 8
R03  20253149.102 8  20253150.285 8 108416720.448 8  84324107.672 8
R11  21922245.844 8  21922245.656 7 117145852.821 8  91113461.667 7
R12  19977702.000 8  19977703.508 8 106717335.835 8  83002382.987 8
R13  21946855.117 6                 117194968.590 6
R18  22143444.570 7  22143447.047 7 118203257.216 7  91935826.767 7
R19  21907611.094 7  21907609.137 6 117190785.081 7  91148504.910 6
> 2026 01 01 00 16 00.0000000  0 18
G01  22205922.375 7  22205925.070 5 116692755.604 7  90929539.706 5
G02  23848719.211 6  23848720.344 4 125325831.972 6  97656502.835 4
G03  22039894.852 7  22039899.652 7 115820390.281 7  90249702.954 7
G10  24160749.695 6  24160753.984 5 126965598.075 6  98934260.469 5
G12  23846663.484 6  23846666.020 4 125315107.152 6  97648129.071 4
G25  22030587.961 7  22030593.496 6 115771526.337 7  90211616.077 6
G26  24867125.523 5  24867131.027 3 130677646.49715 101826747.38213
G28  20513749.352 7  20513752.000 6 107800508.154 7  84000414.439 6
G31  21287835.242 7  21287837.832 7 111868356.175 7  87170160.998 7
G32  21512588.930 8  21512593.676 8 113049437.025 8  88090508.950 8
R01  23094768.078 7                 123454794.726 7
R02  19669591.438 8  19669592.355 8 104960775.615 8  81636144.848 8
R03  20236556.109 8  20236557.203 8 108327898.942 8  84255024.270 8
R11  21937010.742 7  21937011.293 7 117224754.112 7  91174829.351 7
R12  19968235.320 8  19968236.957 8 106666764.815 8  82963049.999 8
R13  21920342.070 6                 117053391.444 6
R18  22158473.359 7  22158475.129 7 118283479.403 7  91998221.812 7
R19  21901799.445 7  21901798.344 6 117159694.709 7  91124323.590 6
> 2026 01 01 00 16 30.0000000  0 18
G01  22210057.188 7  22210059.984 5 116714484.487 7  90946471.295 5
G02  23861637.250 6  23861638.230 4 125393715.938 6  97709399.401 4
G03  22020311.453 7  22020315.949 7 115717476.880 7  90169510.696 7
G10  24179048.156 6  24179054.352 5 127061761.197 6  99009192.731 5
G12  23853881.133 6  23853883.945 4 125353035.678 6  97677683.781 4
G25  22026580.055 7  22026585.410 6 115750466.550 7  90195205.863 6
G26  24841921.023 5  24841926.027 3 130545193.908 5 101723537.640 3
G28  20508050.984 7  20508054.020 6 107770564.646 7  83977081.845 6
G31  21268951.047 7  21268953.336 7 111769118.122 7  87092832.667 7
G32  21521466.711 8  21521471.035 8 113096089.276 8  88126861.348 8
R01  23112625.633 6                 123550258.766 6
R02  19675185.602 8  19675186.781 8 104990629.294 8  81659364.355 8
R03  20220026.938 8  20220028.605 8 108239418.249 8  84186205.953 8
R11  21951880.578 7  21951879.219 7 117304206.758 7  91236625.843 7
R12  19958920.789 8  19958922.117 8 106617009.084 8  82924351.108 8
R13  21893892.586 6                 116912147.269 6
R18  22173599.047 7  22173601.445 7 118364222.101 7  92061021.629 7
R19  21896140.656 6  21896140.359 6 117129429.244 6  91100783.797 6
> 2026 01 01 00 17 00.0000000  0 18
G01  22214299.938 7  22214302.742 5 116736781.296 7  90963845.423 5
G02  23874601.188 6  23874602.211 4 125461842.055 6  97762484.669 4
G03  22000794.555 7  22000799.285 7 115614914.902 7  90089592.275 7
G10  24197379.109 6  24197384.711 5 127158086.331 6  99084251.240 5
G12  23861208.180 6  23861209.938 4 125391530.420 6  97707679.721 4
G25  22022700.938 7  22022706.066 6 115730080.000 7  90179320.255 6
G26  24816715.977 6  24816722.355 3 130412745.94516 101620331.43213
G28  20502458.742 7  20502461.813 6 107741178.239 7  83954183.358 6
G31  21250150.438 7  21250152.457 7 111670319.662 7  87015846.861 7
G32  21530399.727 8  21530404.043 8 113143032.524 8  88163440.488 8
R01  23130511.141 6                 123645872.915 6
R02  19680867.578 8  19680868.680 8 105020949.470 8  81682946.727 8
R03  20203561.531 8  20203563.781 8 108151280.982 8  84117654.770 8
R11  21966851.023 7  21966851.000 7 117384207.701 7  91298848.808 7
R12  19949759.352 8  19949761.047 8 106568071.368 8  82886288.438 8
R13  21867503.805 6                 116771241.099 6
R18  22188821.984 7  22188824.141 7 118445481.978 7  92124223.709 7
R19  21890637.953 6  21890636.633 6 117099990.244 6  91077886.847 6
> 2026 01 01 00 17 30.0000000  0 18
G01  22218649.773 7  22218653.512 5 116759641.274 7  90981658.359 5
G02  23887609.813 6  23887611.027 4 125530204.354 6  97815753.973 4
G03  21981344.570 7  21981348.910 7 115512703.641 7  90009947.151 7
G10  24215738.336 6  24215744.078 5 127254568.225 6  99159431.854 5
G12  23868639.289 6  23868641.191 4 125430586.537 6  97738113.087 4
G25  22018949.047 7  22018954.191 6 115710363.729 7  90163956.930 6
G26  24791511.633 5  24791519.875 3 130280302.250 5 101517128.614 3
G28  20496972.781 7  20496975.398 6 107712345.590 7  83931716.372 6
G31  21231432.633 7  21231435.012 7 111571958.975 7  86939202.196 7
G32  21539387.133 8  21539391.641 8 113190262.637 8  88200243.154 8
R01  23148426.078 6                 123741632.334 6
R02  19686636.453 8  19686637.680 8 105051732.141 8  81706888.790 8
R03  20187162.156 8  20187163.332 8 108063486.786 8  84049370.376 8
R11  21981923.352 7  21981923.672 7 117464749.926 7  91361492.731 7
R12  19940750.852 8  19940752.414 8 106519949.573 8  82848860.373 8
R13  21841181.195 7                 116630674.008 7
R18  22204141.070 7  22204142.066 7 118527251.349 7  92187822.103 7
R19  21885289.344 6  21885287.801 6 117071375.102 6  91055630.599 6
> 2026 01 01 00 18 00.0000000  0 18
G01  22223108.039 7  22223110.617 5 116783064.700 7  90999910.374 5
G02  23900663.680 6  23900665.313 4 125598801.798 6  97869206.513 4
G03  21961961.961 7  21961966.117 7 115410847.630 7  89930578.833 7
G10  24234127.922 6  24234133.762 4 127351206.843 6  99234734.642 4
G12  23876178.727 6  23876181.277 4 125470203.537 6  97768983.452 4
G25  22015325.336 7  22015330.113 6 115691320.071 7  90149117.740 6
G26  24766310.430 5  24766318.289 3 130147867.59015 101413932.82313
G28  20491591.523 7  20491594.316 6 107684068.523 7  83909682.303 6
G31  21212799.688 7  21212801.918 7 111474040.651 7  86862902.225 7
G32  21548429.969 8  21548434.152 8 113237780.756 8  88237270.261 8
R01  23166365.992 6                 123837537.989 6
R02  19692492.734 8  19692492.867 8 105082979.106 8  81731191.977 8
R03  20170825.070 8  20170827.293 8 107976038.515 8  83981355.077 8
R11  21997097.086 7  21997096.363 7 117545831.400 7  91424556.096 7
R12  19931896.383 8  19931897.570 8 106472647.143 8  82812069.615 8
R13  21814920.836 6                 116490451.541 6
R18  22219554.023 7  22219555.105 7 118609527.898 7  92251814.924 7
R19  21880093.422 6  21880092.043 6 117043586.194 6  91034016.987 6
> 2026 01 01 00 18 30.0000000  0 18
G01  22227672.023 7  22227675.172 5 116807051.805 7  91018601.622 5
G02  23913762.328 6  23913763.000 4 125667633.884 6  97922841.882 4
G03  21942647.758 7  21942652.512 7 115309351.344 7  89851490.819 7
G10  24252548.094 6  24252552.855 4 127448002.108 6  99310159.516 4
G12  23883824.055 6  23883826.836 4 125510381.371 6  97800290.752 4
G25  22011828.906 7  22011834.785 7 115672951.285 7  90134804.410 7
G26  24741113.227 6  24741120.133 4 130015446.614 6 101310747.661 4
G28  20486316.945 8  20486319.391 6 107656348.761 8  83888082.491 6
G31  21194250.883 7  21194253.453 7 111376568.173 7  86786949.666 7
G32  21557527.031 8  21557531.512 8 113285587.913 8  88274522.583 8
R01  23184335.203 6                 123933590.410 6
R02  19698434.930 8  19698436.063 8 105114691.601 8  81755857.247 8
R03  20154554.641 8  20154556.102 8 107888940.078 8  83913611.859 8
R11  22012370.680 7  22012369.996 7 117627450.197 7  91488037.375 7
R12  19923194.906 8  19923196.332 8 106426166.809 8  82775918.261 8
R13  21788727.766 6                 116350579.854 6
R18  22235062.398 7  22235063.324 7 118692309.224 7  92316200.373 7
R19  21875053.195 6  21875053.586 6 117016626.032 6  91013047.877 6
> 2026 01 01 00 19 00.0000000  0 18
G01  22232343.484 7  22232346.039 5 116831598.268 7  91037728.709 5
G02  23926903.391 6  23926904.930 4 125736695.339 6  97976655.983 4
G03  21923402.133 7  21923406.621 7 115208214.535 7  89772682.922 7
G10  24270996.477 6  24271001.801 5 127544949.261 6  99385702.749 5
G12  23891575.180 6  23891576.172 3 125551115.425 6  97832031.680 3
G25  22008462.234 7  22008467.430 7 115655254.858 7  90121014.988 7
G26  24715916.648 5  24715923.773 4 129883039.279 5 101207573.150 4
G28  20481147.328 8  20481150.066 6 107629183.418 8  83866914.693 6
G31  21175787.258 7  21175789.766 7 111279540.607 7  86711343.793 7
G32  21566678.547 8  21566683.445 8 113333680.503 8  88311997.306 8
R01  23202330.188 7                 124029785.325 7
R02  19704464.648 8  19704465.770 8 105146866.305 8  81780882.004 8
R03  20138349.289 8  20138350.770 8 107802190.918 8  83846140.281 8
R11  22027743.898 7  22027743.535 7 117709599.604 7  91551931.377 7
R12  19914647.148 8  19914648.402 8 106380507.276 8  82740405.302 8
R13  21762601.117 7                 116211060.419 7
R18  22250664.000 7  22250663.820 7 118775588.070 7  92380972.744 7
R19  21870167.203 6  21870167.273 6 116990491.910 6  90992721.335 6
> 2026 01 01 00 19 30.0000000  0 18
G01  22237119.992 7  22237122.813 5 116856699.490 7  91057288.086 5
G02  23940088.586 6  23940089.598 3 125805980.357 6  98030644.263 3
G03  21904225.398 7  21904229.109 7 115107436.911 7  89694154.917 7
G10  24289473.195 6  24289478.801 5 127642043.528 6  99461360.555 5
G12  23899431.727 5  23899434.984 3 125592400.979 5  97864202.234 3
G25  22005221.836 7  22005227.148 7 115638228.297 7  90107747.556 7
G26  24690722.492 5  24690730.570 4 129750645.652 5 101104409.292 4
G28  20476083.141 8  20476085.672 6 107602569.449 8  83846176.533 6
G31  21157408.430 7  21157410.578 7 111182957.141 7  86636083.956 7
G32  21575884.344 8  21575888.887 8 113382054.843 8  88349691.603 8
R01  23220351.672 7                 124126118.884 7
R02  19710580.180 8  19710581.309 8 105179499.838 8  81806263.638 8
R03  20122208.492 8  20122210.469 8 107715790.006 8  83778939.601 8
R11  22043215.414 7  22043214.633 7 117792272.650 7  91616232.634 7
R12  19906252.805 8  19906254.301 8 106335666.774 8  82705529.353 8
R13  21736538.633 7                 116071894.147 7
R18  22266355.398 7  22266357.176 7 118859357.293 7  92446126.560 7
R19  21865436.727 7  21865436.492 7 116965181.486 7  90973035.482 7
> 2026 01 01 00 20 00.0000000  0 18
G01  22242002.445 7  22242005.195 5 116882356.854 7  91077280.843 5
G02  23953315.836 6  23953316.965 4 125875489.938 6  98084807.568 4
G03  21885116.883 7  21885121.352 7 115007024.123 7  89615911.190 7
G10  24307977.469 6  24307983.527 5 127739286.044 6  99537133.865 5
G12  23907393.531 5  23907395.273 3 125634239.139 5  97896803.326 3
G25  22002109.914 7  22002115.004 6 115621874.842 7  90095004.623 6
G26  24665532.789 5  24665539.309 4 129618271.577 5 101001260.747 4
G28  20471124.195 8  20471126.605 6 107576509.729 8  83825870.270 6
G31  21139114.289 7  21139116.742 7 111086822.722 7  86561174.033 7
G32  21585143.578 8  21585147.965 8 113430713.161 8  88387607.153 8
R01  23238399.555 6                 124222592.728 6
R02  19716782.055 8  19716783.422 8 105212594.875 8  81832004.204 8
R03  20106134.438 8  20106135.672 8 107629741.508 8  83712012.990 8
R11  22058783.781 7  22058783.738 7 117875468.665 7  91680940.610 7
R12  19898012.773 8  19898014.102 8 106291649.434 8  82671293.662 8
R13  21710545.602 7                 115933087.926 7
R18  22282140.813 7  22282141.773 7 118943615.518 7  92511660.708 7
R19  21860861.070 7  21860858.555 6 116940697.985 7  90953992.749 6
> 2026 01 01 00 20 30.0000000  0 18
G01  22246991.258 7  22246994.301 5 116908572.932 7  91097708.922 5
G02  23966585.734 6  23966586.918 3 125945225.129 6  98139146.671 3
G03  21866079.422 7  21866084.117 7 114906982.907 7  89537957.010 7
G10  24326510.734 6  24326515.879 4 127836679.016 6  99613024.416 4
G12  23915459.594 5  23915461.715 3 125676631.906 5  97929836.623 3
G25  21999127.031 7  21999132.199 7 115606199.019 7  90082789.686 7
G26  24640348.430 6  24640353.535 3 129485924.208 6 100898132.908 3
G28  20466271.102 7  20466273.703 7 107551008.288 7  83805999.022 7
G31  21120907.203 7  21120909.707 7 110991143.548 7  86486618.857 7
G32  21594457.477 8  21594462.148 8 113479658.834 8  88425746.632 8
R01  23256473.477 6                 124319209.963 6
R02  19723071.234 8  19723072.457 8 105246155.067 8  81858106.592 8
R03  20090126.773 8  20090128.457 8 107544052.561 8  83645366.044 8
R11  22074450.867 7  22074450.641 7 117959187.810 7  91746055.501 7
R12  19889927.453 8  19889928.953 8 106248460.518 8  82637702.292 8
R13  21684618.977 7                 115794650.302 7
R18  22298016.000 7  22298016.816 7 119028362.645 7  92577575.131 7
R19  21856437.648 7  21856437.707 7 116917046.138 7  90935596.854 7
> 2026 01 01 00 21 00.0000000  0 18
G01  22252085.109 7  22252087.996 5 116935341.554 7  91118567.587 5
G02  23979898.195 6  23979898.219 4 126015178.979 6  98193656.138 4
G03  21847112.336 7  21847117.336 7 114807311.492 7  89460290.986 7
G10  24345070.680 6  24345077.105 5 127934215.980 6  99689027.214 5
G12  23923632.414 5  23923633.520 3 125719572.763 5  97963297.075 3
G25  21996272.344 7  21996276.809 6 115591196.555 7  90071099.477 6
G26  24615167.641 5  24615173.188 3 129353601.846 5 100795024.594 3
G28  20461523.844 7  20461526.152 6 107526060.516 7  83786559.201 6
G31  21102785.977 7  21102788.570 7 110895917.059 7  86412416.415 7
G32  21603825.266 8  21603830.070 8 113528886.586 8  88464105.916 8
R01  23274572.875 6                 124415964.796 6
R02  19729446.625 8  19729447.504 8 105280175.420 8  81884566.846 8
R03  20074186.039 8  20074187.523 8 107458720.778 8  83578996.887 8
R11  22090213.898 7  22090213.199 7 118043421.774 7  91811570.795 7
R12  19881996.773 8  19881998.465 8 106206096.753 8  82604752.715 8
R13  21658763.945 7                 115656580.697 7
R18  22313981.641 7  22313982.684 7 119113589.922 7  92643862.978 7
R19  21852171.727 7  21852170.859 6 116894221.728 7  90917844.511 6
> 2026 01 01 00 21 30.0000000  0 18
G01  22257283.867 7  22257286.773 5 116962661.928 7  91139856.172 5
G02  23993251.609 6  23993251.883 4 126085349.771 6  98248334.665 4
G03  21828217.055 7  21828221.488 7 114708013.348 7  89382915.830 7
G10  24363659.898 6  24363664.598 4 128031896.040 6  99765141.555 4
G12  23931907.461 5  23931908.496 3 125763060.575 5  97997183.717 3
G25  21993545.453 7  21993550.727 7 115576868.663 7  90059934.899 7
G26  24589992.000 5  24589999.539 4 129221308.327 5 100691938.811 4
G28  20456882.344 8  20456884.328 6 107501667.134 8  83767551.388 6
G31  21084751.922 7  21084754.227 7 110801146.114 7  86338568.941 7
G32  21613246.977 8  21613251.047 8 113578396.670 8  88502685.179 8
R01  23292700.813 6                 124512857.021 6
R02  19735908.555 8  19735909.922 8 105314656.487 8  81911385.435 8
R03  20058312.555 8  20058314.281 8 107373747.879 8  83512906.845 8
R11  22106073.227 7  22106072.504 7 118128167.752 7  91877484.344 7
R12  19874221.523 8  19874222.656 8 106164560.311 8  82572446.587 8
R13  21632978.258 7                 115518884.480 7
R18  22330036.805 7  22330038.707 7 119199293.900 7  92710521.599 7
R19  21848059.008 6  21848059.285 7 116872225.830 6  90900736.664 7
> 2026 01 01 00 22 00.0000000  0 18
G01  22262587.305 7  22262590.070 5 116990531.900 7  91161573.039 5
G02  24006645.492 6  24006645.305 4 126155734.440 6  98303179.824 4
G03  21809392.828 7  21809397.023 7 114609090.703 7  89305833.262 7
G10  24382273.773 6  24382279.668 5 128129716.857 6  99841365.492 5
G12  23940284.055 4
G25  21990947.258 7  21990952.598 7 115563215.061 7  90049295.729 7
G26  24564824.367 5  24564831.367 4 129089046.124 5 100588877.378 4
G28  20452345.813 8  20452347.859 7 107477827.494 8  83748975.045 7
G31  21066804.344 8  21066807.188 7 110706831.979 8  86265077.428 7
G32  21622721.516 8  21622725.801 8 113628187.729 8  88541483.398 8
R01  23310851.508 7                 124609885.084 7
R02  19742456.102 8  19742457.625 8 105349597.390 8  81938561.703 8
R03  20042507.086 8  20042507.793 8 107289136.548 8  83447098.031 8
R11  22122027.242 7  22122026.816 7 118213421.162 7  91943792.540 7
R12  19866600.539 8  19866601.758 8 106123851.613 8  82540784.286 8
R13  21607262.031 7                 115381564.839 7
