%  UTC                   latitude(deg) longitude(deg)  height(m)   Q  ns   sdn(m)   sde(m)   sdu(m)  sdne(m)  sdeu(m)  sdun(m) age(s)  ratio
2025/02/04 02:45:12.000   16.262316739  -61.527541469   -16.5562   6  22  13.5782  12.3947  26.1470  -6.0760  -5.8421  -6.2394   0.00    0.0
2025/02/04 02:45:42.000   16.262297819  -61.527521362   -24.9281   6  22   5.0243   8.4264   9.0043   1.9180   0.4430  -1.3705   0.00    0.0
2025/02/04 02:46:12.000   16.262292052  -61.527502492   -27.3046   6  22   3.2411   6.3423   5.6390   1.7904   1.4931   0.4890   0.00    0.0
2025/02/04 02:46:42.000   16.262309541  -61.527510247   -25.3288   6  22   2.4411   5.1137   4.2140   1.5965   1.4320   0.4586   0.00    0.0
2025/02/04 02:47:12.000   16.262318859  -61.527521975   -23.9160   6  22   1.9904   4.3177   3.4260   1.4112   1.2901   0.4079   0.00    0.0
2025/02/04 02:47:42.000   16.262314291  -61.527536499   -24.0116   6  22   1.5549   3.3653   2.6317   1.1177   0.9526   0.5406   0.00    0.0
2025/02/04 02:49:12.000   16.262312944  -61.527531442   -25.2068   6  20   0.5868   1.4981   1.3503   0.5174   0.3842   0.1905   0.00    0.0
2025/02/04 02:49:42.000   16.262311530  -61.527536772   -25.7829   6  21   0.4117   0.9374   0.8456   0.3385   0.1614   0.1830   0.00    0.0
2025/02/04 02:50:12.000   16.262310930  -61.527537000   -25.7618   6  22   0.3551   0.8346   0.7702   0.2979   0.1573   0.1317   0.00    0.0
2025/02/04 02:50:42.000   16.262310764  -61.527537177   -25.7767   6  21   0.3464   0.8152   0.7470   0.2935   0.1545   0.1346   0.00    0.0
2025/02/04 02:51:12.000   16.262310635  -61.527537087   -25.7867   6  21   0.3415   0.8010   0.7312   0.2909   0.1499   0.1328   0.00    0.0
2025/02/04 02:51:42.000   16.262310334  -61.527537655   -25.7853   6  23   0.3343   0.7817   0.7185   0.2827   0.1446   0.1315   0.00    0.0
2025/02/04 02:52:12.000   16.262310092  -61.527538014   -25.7650   6  23   0.3285   0.7662   0.7080   0.2765   0.1411   0.1304   0.00    0.0
2025/02/04 02:52:42.000   16.262309812  -61.527538304   -25.7451   6  23   0.3179   0.7392   0.6892   0.2656   0.1351   0.1279   0.00    0.0
2025/02/04 02:53:12.000   16.262309428  -61.527538733   -25.7080   6  22   0.2992   0.6928   0.6556   0.2477   0.1267   0.1231   0.00    0.0
2025/02/04 02:53:42.000   16.262308951  -61.527538730   -25.6977   6  21   0.2815   0.6459   0.6179   0.2303   0.0765   0.1266   0.00    0.0
2025/02/04 02:54:12.000   16.262308473  -61.527537725   -25.6571   6  20   0.2256   0.5179   0.5380   0.1765   0.1014   0.1021   0.00    0.0
2025/02/04 02:54:42.000   16.262307728  -61.527538328   -25.7552   6  19   0.1684   0.3803   0.4188   0.1284   0.0617   0.0830   0.00    0.0
2025/02/04 02:55:12.000   16.262307474  -61.527538288   -25.7645   6  20   0.1583   0.3593   0.3893   0.1230   0.0517   0.0742   0.00    0.0
2025/02/04 02:55:42.000   16.262307439  -61.527538530   -25.7023   6  21   0.1537   0.3496   0.3757   0.1219   0.0504   0.0708   0.00    0.0
2025/02/04 02:56:12.000   16.262307405  -61.527538556   -25.7023   6  22   0.1521   0.3464   0.3707   0.1209   0.0430   0.0713   0.00    0.0
2025/02/04 02:56:42.000   16.262307414  -61.527538597   -25.6894   6  23   0.1505   0.3428   0.3660   0.1204   0.0430   0.0697   0.00    0.0
2025/02/04 02:57:12.000   16.262307431  -61.527538506   -25.6863   6  23   0.1492   0.3398   0.3621   0.1197   0.0436   0.0688   0.00    0.0
2025/02/04 02:57:42.000   16.262307425  -61.527538405   -25.6770   6  22   0.1467   0.3340   0.3566   0.1179   0.0479   0.0677   0.00    0.0
2025/02/04 02:58:12.000   16.262307251  -61.527538579   -25.6590   6  21   0.1422   0.3235   0.3467   0.1145   0.0541   0.0656   0.00    0.0
2025/02/04 02:58:42.000   16.262306973  -61.527538696   -25.6633   6  21   0.1333   0.3033   0.3280   0.1074   0.0615   0.0615   0.00    0.0
2025/02/04 02:59:12.000   16.262306804  -61.527538561   -25.6411   6  20   0.1232   0.2747   0.3091   0.0950   0.0584   0.0532   0.00    0.0
2025/02/04 02:59:42.000   16.262306965  -61.527537664   -25.6760   6  20   0.1017   0.2232   0.2678   0.0732   0.0200   0.0492   0.00    0.0
2025/02/04 03:00:42.000   16.262306980  -61.527537532   -25.6745   6  20   0.0992   0.2176   0.2617   0.0704   0.0234   0.0494   0.00    0.0
2025/02/04 03:01:12.000   16.262307001  -61.527537358   -25.6738   6  21   0.0973   0.2141   0.2576   0.0696   0.0244   0.0487   0.00    0.0
2025/02/04 03:01:42.000   16.262307020  -61.527537173   -25.6785   6  22   0.0961   0.2116   0.2540   0.0691   0.0295   0.0480   0.00    0.0
2025/02/04 03:02:12.000   16.262307025  -61.527537092   -25.6783   6  22   0.0952   0.2098   0.2514   0.0687   0.0326   0.0475   0.00    0.0
2025/02/04 03:02:42.000   16.262307051  -61.527537026   -25.6714   6  21   0.0938   0.2071   0.2475   0.0682   0.0363   0.0468   0.00    0.0
2025/02/04 03:03:12.000   16.262307326  -61.527537176   -25.6177   6  21   0.0911   0.2020   0.2401   0.0671   0.0421   0.0448   0.00    0.0
2025/02/04 03:03:42.000   16.262307316  -61.527537128   -25.6420   6  20   0.0872   0.1968   0.2313   0.0666   0.0462   0.0437   0.00    0.0
2025/02/04 03:04:12.000   16.262307260  -61.527536923   -25.6658   6  20   0.0808   0.1793   0.2145   0.0634   0.0520   0.0387   0.00    0.0
2025/02/04 03:04:42.000   16.262307271  -61.527536815   -25.6779   6  20   0.0699   0.1544   0.1876   0.0583   0.0524   0.0357   0.00    0.0
2025/02/04 03:05:12.000   16.262307212  -61.527536720   -25.6986   6  20   0.0671   0.1480   0.1748   0.0555   0.0533   0.0321   0.00    0.0
2025/02/04 03:05:42.000   16.262307208  -61.527536616   -25.7063   6  20   0.0658   0.1447   0.1700   0.0541   0.0533   0.0308   0.00    0.0
2025/02/04 03:06:12.000   16.262307215  -61.527536571   -25.7052   6  22   0.0647   0.1428   0.1668   0.0531   0.0532   0.0305   0.00    0.0
2025/02/04 03:06:42.000   16.262307233  -61.527536552   -25.7077   6  22   0.0641   0.1416   0.1650   0.0525   0.0533   0.0302   0.00    0.0
2025/02/04 03:07:12.000   16.262307248  -61.527536553   -25.7060   6  22   0.0636   0.1408   0.1636   0.0522   0.0533   0.0301   0.00    0.0
2025/02/04 03:07:42.000   16.262307242  -61.527536563   -25.7071   6  21   0.0631   0.1398   0.1619   0.0518   0.0533   0.0298   0.00    0.0
2025/02/04 03:08:12.000   16.262307179  -61.527536698   -25.7085   6  21   0.0618   0.1375   0.1582   0.0507   0.0531   0.0293   0.00    0.0
2025/02/04 03:08:42.000   16.262307141  -61.527537011   -25.6884   6  20   0.0595   0.1329   0.1519   0.0486   0.0522   0.0280   0.00    0.0
2025/02/04 03:09:12.000   16.262307170  -61.527537388   -25.6766   6  20   0.0537   0.1217   0.1392   0.0431   0.0482   0.0252   0.00    0.0
2025/02/04 03:10:12.000   16.262307240  -61.527536788   -25.6643   6  18   0.0492   0.1125   0.1284   0.0388   0.0448   0.0228   0.00    0.0
2025/02/04 03:10:42.000   16.262307252  -61.527536758   -25.6600   6  19   0.0480   0.1110   0.1263   0.0381   0.0434   0.0221   0.00    0.0
2025/02/04 03:13:12.000   16.262307299  -61.527536654   -25.6523   6  18   0.0471   0.1092   0.1247   0.0373   0.0425   0.0217   0.00    0.0
2025/02/04 03:13:42.000   16.262307316  -61.527536569   -25.6516   6  18   0.0458   0.1062   0.1227   0.0360   0.0402   0.0216   0.00    0.0
2025/02/04 03:14:12.000   16.262307416  -61.527536268   -25.6417   6  19   0.0415   0.0971   0.1154   0.0322   0.0366   0.0194   0.00    0.0
2025/02/04 03:14:42.000   16.262307464  -61.527536116   -25.6359   6  19   0.0364   0.0881   0.1071   0.0294   0.0346   0.0114   0.00    0.0
2025/02/04 03:15:12.000   16.262307500  -61.527535943   -25.6238   6  20   0.0345   0.0836   0.1038   0.0274   0.0317   0.0127   0.00    0.0
2025/02/04 03:15:42.000   16.262307505  -61.527535904   -25.6225   6  20   0.0340   0.0823   0.1028   0.0269   0.0308   0.0134   0.00    0.0
2025/02/04 03:16:12.000   16.262307513  -61.527535878   -25.6235   6  20   0.0338   0.0818   0.1024   0.0267   0.0305   0.0135   0.00    0.0
2025/02/04 03:16:42.000   16.262307525  -61.527535870   -25.6221   6  19   0.0336   0.0813   0.1020   0.0265   0.0303   0.0135   0.00    0.0
2025/02/04 03:17:12.000   16.262307528  -61.527535860   -25.6228   6  19   0.0335   0.0810   0.1017   0.0264   0.0302   0.0135   0.00    0.0
2025/02/04 03:17:42.000   16.262307537  -61.527535816   -25.6244   6  19   0.0332   0.0805   0.1013   0.0262   0.0300   0.0135   0.00    0.0
2025/02/04 03:18:12.000   16.262307556  -61.527535759   -25.6233   6  19   0.0329   0.0796   0.1005   0.0258   0.0296   0.0135   0.00    0.0
2025/02/04 03:18:42.000   16.262307596  -61.527535654   -25.6204   6  19   0.0321   0.0777   0.0990   0.0251   0.0290   0.0134   0.00    0.0
2025/02/04 03:19:12.000   16.262307583  -61.527535691   -25.6198   6  20   0.0305   0.0741   0.0964   0.0231   0.0266   0.0148   0.00    0.0
2025/02/04 03:19:42.000   16.262307590  -61.527535705   -25.6217   6  20   0.0271   0.0655   0.0887   0.0208   0.0257   0.0124   0.00    0.0
2025/02/04 03:53:12.000   16.262307598  -61.527535660   -25.6194   6  16   0.0263   0.0625   0.0855   0.0205   0.0269   0.0138   0.00    0.0
2025/02/04 03:54:12.000   16.262307567  -61.527535754   -25.6336   6  15   0.0223   0.0542   0.0750   0.0194   0.0271   0.0098   0.00    0.0
2025/02/04 03:54:42.000   16.262307617  -61.527535440   -25.6343   6  15   0.0156   0.0380   0.0583   0.0137   0.0221   0.0058   0.00    0.0
2025/02/04 03:55:12.000   16.262307591  -61.527535479   -25.6355   6  15   0.0147   0.0355   0.0552   0.0130   0.0214   0.0059   0.00    0.0
2025/02/04 03:55:42.000   16.262307586  -61.527535514   -25.6294   6  15   0.0144   0.0347   0.0542   0.0128   0.0212   0.0060   0.00    0.0
2025/02/04 03:56:12.000   16.262307552  -61.527535608   -25.6253   6  17   0.0142   0.0342   0.0537   0.0125   0.0211   0.0061   0.00    0.0
2025/02/04 03:56:42.000   16.262307554  -61.527535610   -25.6240   6  18   0.0142   0.0341   0.0535   0.0125   0.0211   0.0061   0.00    0.0
2025/02/04 03:57:42.000   16.262307557  -61.527535602   -25.6253   6  18   0.0141   0.0339   0.0532   0.0124   0.0211   0.0062   0.00    0.0
2025/02/04 03:58:12.000   16.262307526  -61.527535689   -25.6264   6  17   0.0139   0.0334   0.0527   0.0122   0.0211   0.0063   0.00    0.0
2025/02/04 03:58:42.000   16.262307534  -61.527535696   -25.6304   6  16   0.0137   0.0329   0.0519   0.0121   0.0209   0.0063   0.00    0.0
2025/02/04 03:59:12.000   16.262307535  -61.527535746   -25.6236   6  17   0.0130   0.0313   0.0496   0.0115   0.0203   0.0061   0.00    0.0
2025/02/04 03:59:42.000   16.262307558  -61.527535632   -25.6187   6  16   0.0115   0.0277   0.0451   0.0100   0.0182   0.0042   0.00    0.0
2025/02/04 04:00:12.000   16.262307561  -61.527535614   -25.6142   6  16   0.0112   0.0273   0.0442   0.0099   0.0181   0.0045   0.00    0.0
2025/02/04 04:00:42.000   16.262307514  -61.527535709   -25.6052   6  18   0.0111   0.0269   0.0438   0.0097   0.0181   0.0047   0.00    0.0
2025/02/04 04:01:12.000   16.262307493  -61.527535734   -25.6016   6  19   0.0110   0.0267   0.0436   0.0096   0.0181   0.0048   0.00    0.0
2025/02/04 04:01:42.000   16.262307480  -61.527535745   -25.6005   6  18   0.0109   0.0266   0.0434   0.0095   0.0181   0.0049   0.00    0.0
2025/02/04 04:02:12.000   16.262307480  -61.527535741   -25.6006   6  18   0.0109   0.0266   0.0433   0.0095   0.0181   0.0049   0.00    0.0
2025/02/04 04:02:42.000   16.262307477  -61.527535741   -25.6004   6  17   0.0109   0.0265   0.0432   0.0095   0.0181   0.0049   0.00    0.0
2025/02/04 04:03:12.000   16.262307475  -61.527535733   -25.5989   6  17   0.0108   0.0264   0.0430   0.0094   0.0181   0.0049   0.00    0.0
2025/02/04 04:03:42.000   16.262307474  -61.527535707   -25.5974   6  17   0.0107   0.0261   0.0425   0.0093   0.0180   0.0049   0.00    0.0
2025/02/04 04:04:12.000   16.262307472  -61.527535649   -25.5935   6  16   0.0104   0.0254   0.0414   0.0090   0.0177   0.0048   0.00    0.0
2025/02/04 04:04:42.000   16.262307479  -61.527535629   -25.5913   6  18   0.0100   0.0244   0.0396   0.0086   0.0170   0.0049   0.00    0.0
2025/02/04 04:05:12.000   16.262307482  -61.527535629   -25.5918   6  18   0.0098   0.0241   0.0389   0.0084   0.0167   0.0050   0.00    0.0
2025/02/04 04:05:42.000   16.262307446  -61.527535684   -25.5875   6  19   0.0097   0.0238   0.0386   0.0083   0.0167   0.0051   0.00    0.0
2025/02/04 04:06:12.000   16.262307428  -61.527535717   -25.5855   6  19   0.0096   0.0237   0.0384   0.0082   0.0168   0.0051   0.00    0.0
2025/02/04 04:06:42.000   16.262307426  -61.527535717   -25.5851   6  18   0.0096   0.0237   0.0383   0.0082   0.0167   0.0051   0.00    0.0
2025/02/04 04:07:12.000   16.262307426  -61.527535716   -25.5850   6  18   0.0096   0.0237   0.0382   0.0082   0.0167   0.0051   0.00    0.0
2025/02/04 04:07:42.000   16.262307417  -61.527535728   -25.5840   6  19   0.0096   0.0236   0.0381   0.0081   0.0168   0.0052   0.00    0.0
2025/02/04 04:08:12.000   16.262307414  -61.527535729   -25.5837   6  18   0.0095   0.0235   0.0379   0.0081   0.0167   0.0052   0.00    0.0
2025/02/04 04:08:42.000   16.262307410  -61.527535712   -25.5826   6  17   0.0094   0.0233   0.0376   0.0080   0.0167   0.0051   0.00    0.0
2025/02/04 04:09:12.000   16.262307420  -61.527535645   -25.5828   6  17   0.0092   0.0228   0.0367   0.0078   0.0164   0.0050   0.00    0.0
2025/02/04 04:09:42.000   16.262307430  -61.527535586   -25.5853   6  17   0.0086   0.0215   0.0348   0.0072   0.0153   0.0041   0.00    0.0
2025/02/04 04:10:12.000   16.262307383  -61.527535679   -25.5804   6  18   0.0084   0.0210   0.0341   0.0069   0.0153   0.0043   0.00    0.0
2025/02/04 04:10:42.000   16.262307364  -61.527535717   -25.5778   6  19   0.0084   0.0209   0.0338   0.0068   0.0153   0.0044   0.00    0.0
2025/02/04 04:11:12.000   16.262307358  -61.527535723   -25.5764   6  19   0.0083   0.0208   0.0337   0.0068   0.0153   0.0044   0.00    0.0
2025/02/04 04:11:42.000   16.262307357  -61.527535722   -25.5765   6  17   0.0083   0.0208   0.0336   0.0068   0.0153   0.0044   0.00    0.0
2025/02/04 04:12:12.000   16.262307357  -61.527535723   -25.5764   6  17   0.0083   0.0208   0.0336   0.0068   0.0153   0.0045   0.00    0.0
2025/02/04 04:12:42.000   16.262307357  -61.527535724   -25.5765   6  17   0.0083   0.0208   0.0335   0.0068   0.0153   0.0045   0.00    0.0
2025/02/04 04:13:12.000   16.262307357  -61.527535725   -25.5765   6  17   0.0083   0.0207   0.0334   0.0067   0.0153   0.0045   0.00    0.0
2025/02/04 04:13:42.000   16.262307355  -61.527535730   -25.5793   6  18   0.0082   0.0207   0.0331   0.0067   0.0152   0.0045   0.00    0.0
2025/02/04 04:14:12.000   16.262307357  -61.527535729   -25.5779   6  20   0.0081   0.0205   0.0327   0.0067   0.0150   0.0046   0.00    0.0
2025/02/04 04:14:42.000   16.262307371  -61.527535704   -25.5746   6  20   0.0078   0.0199   0.0314   0.0064   0.0144   0.0043   0.00    0.0
2025/02/04 04:15:12.000   16.262307375  -61.527535699   -25.5759   6  20   0.0077   0.0197   0.0310   0.0064   0.0142   0.0043   0.00    0.0
2025/02/04 04:15:42.000   16.262307375  -61.527535696   -25.5771   6  19   0.0077   0.0197   0.0309   0.0064   0.0142   0.0042   0.00    0.0
2025/02/04 04:16:12.000   16.262307375  -61.527535696   -25.5778   6  19   0.0077   0.0197   0.0308   0.0064   0.0142   0.0042   0.00    0.0
2025/02/04 04:16:42.000   16.262307375  -61.527535696   -25.5782   6  19   0.0077   0.0197   0.0307   0.0064   0.0142   0.0042   0.00    0.0
2025/02/04 04:17:12.000   16.262307375  -61.527535696   -25.5783   6  19   0.0077   0.0197   0.0307   0.0064   0.0142   0.0042   0.00    0.0
2025/02/04 04:17:42.000   16.262307375  -61.527535696   -25.5785   6  19   0.0077   0.0197   0.0307   0.0064   0.0141   0.0042   0.00    0.0
2025/02/04 04:18:12.000   16.262307374  -61.527535692   -25.5784   6  20   0.0077   0.0196   0.0306   0.0063   0.0141   0.0042   0.00    0.0
2025/02/04 04:18:42.000   16.262307375  -61.527535692   -25.5785   6  19   0.0076   0.0196   0.0305   0.0063   0.0141   0.0042   0.00    0.0
2025/02/04 04:19:12.000   16.262307375  -61.527535690   -25.5794   6  19   0.0076   0.0194   0.0301   0.0063   0.0140   0.0043   0.00    0.0
2025/02/04 04:19:42.000   16.262307389  -61.527535697   -25.5827   6  19   0.0073   0.0190   0.0291   0.0061   0.0134   0.0042   0.00    0.0
2025/02/04 04:20:12.000   16.262307392  -61.527535694   -25.5827   6  19   0.0073   0.0189   0.0289   0.0060   0.0133   0.0041   0.00    0.0
2025/02/04 04:20:42.000   16.262307393  -61.527535695   -25.5829   6  18   0.0073   0.0188   0.0288   0.0060   0.0133   0.0041   0.00    0.0
2025/02/04 04:21:12.000   16.262307394  -61.527535694   -25.5832   6  18   0.0072   0.0188   0.0288   0.0060   0.0132   0.0041   0.00    0.0
2025/02/04 04:21:42.000   16.262307394  -61.527535696   -25.5838   6  18   0.0072   0.0188   0.0287   0.0060   0.0132   0.0041   0.00    0.0
2025/02/04 04:22:12.000   16.262307394  -61.527535696   -25.5844   6  19   0.0072   0.0188   0.0287   0.0060   0.0132   0.0042   0.00    0.0
2025/02/04 04:22:42.000   16.262307394  -61.527535697   -25.5850   6  19   0.0072   0.0187   0.0286   0.0060   0.0132   0.0042   0.00    0.0
2025/02/04 04:23:12.000   16.262307394  -61.527535697   -25.5853   6  19   0.0072   0.0187   0.0286   0.0060   0.0131   0.0042   0.00    0.0
2025/02/04 04:23:42.000   16.262307396  -61.527535700   -25.5866   6  20   0.0072   0.0186   0.0284   0.0059   0.0130   0.0042   0.00    0.0
2025/02/04 04:24:12.000   16.262307400  -61.527535708   -25.5881   6  19   0.0071   0.0185   0.0280   0.0059   0.0129   0.0042   0.00    0.0
2025/02/04 04:24:42.000   16.262307405  -61.527535722   -25.5900   6  18   0.0069   0.0181   0.0272   0.0057   0.0125   0.0041   0.00    0.0
2025/02/04 04:25:12.000   16.262307408  -61.527535722   -25.5887   6  19   0.0068   0.0180   0.0270   0.0056   0.0124   0.0041   0.00    0.0
2025/02/04 04:25:42.000   16.262307409  -61.527535720   -25.5880   6  19   0.0068   0.0180   0.0270   0.0056   0.0123   0.0041   0.00    0.0
2025/02/04 04:26:12.000   16.262307409  -61.527535719   -25.5883   6  19   0.0068   0.0179   0.0269   0.0056   0.0123   0.0041   0.00    0.0
2025/02/04 04:26:42.000   16.262307410  -61.527535717   -25.5880   6  19   0.0068   0.0179   0.0269   0.0056   0.0123   0.0041   0.00    0.0
2025/02/04 04:27:12.000   16.262307410  -61.527535716   -25.5879   6  19   0.0068   0.0179   0.0269   0.0056   0.0123   0.0041   0.00    0.0
2025/02/04 04:27:42.000   16.262307411  -61.527535715   -25.5878   6  19   0.0068   0.0179   0.0269   0.0056   0.0123   0.0041   0.00    0.0
2025/02/04 04:28:12.000   16.262307412  -61.527535714   -25.5877   6  19   0.0068   0.0179   0.0268   0.0056   0.0123   0.0041   0.00    0.0
2025/02/04 04:28:42.000   16.262307412  -61.527535720   -25.5882   6  19   0.0068   0.0178   0.0268   0.0055   0.0122   0.0041   0.00    0.0
2025/02/04 04:29:12.000   16.262307413  -61.527535727   -25.5903   6  19   0.0067   0.0177   0.0265   0.0055   0.0121   0.0042   0.00    0.0
2025/02/04 04:29:42.000   16.262307425  -61.527535720   -25.5908   6  19   0.0066   0.0173   0.0259   0.0053   0.0117   0.0040   0.00    0.0
2025/02/04 04:30:12.000   16.262307436  -61.527535709   -25.5895   6  19   0.0065   0.0172   0.0257   0.0053   0.0116   0.0040   0.00    0.0
2025/02/04 04:30:42.000   16.262307439  -61.527535706   -25.5895   6  19   0.0065   0.0172   0.0256   0.0052   0.0115   0.0040   0.00    0.0
2025/02/04 04:31:12.000   16.262307441  -61.527535702   -25.5896   6  19   0.0065   0.0171   0.0256   0.0052   0.0115   0.0040   0.00    0.0
2025/02/04 04:31:42.000   16.262307443  -61.527535700   -25.5895   6  19   0.0065   0.0171   0.0256   0.0052   0.0115   0.0040   0.00    0.0
2025/02/04 04:32:12.000   16.262307443  -61.527535699   -25.5895   6  19   0.0065   0.0171   0.0256   0.0052   0.0115   0.0040   0.00    0.0
2025/02/04 04:32:42.000   16.262307444  -61.527535697   -25.5893   6  19   0.0065   0.0171   0.0255   0.0052   0.0115   0.0040   0.00    0.0
2025/02/04 04:33:12.000   16.262307446  -61.527535695   -25.5892   6  19   0.0064   0.0171   0.0255   0.0052   0.0114   0.0039   0.00    0.0
2025/02/04 04:33:42.000   16.262307447  -61.527535692   -25.5889   6  19   0.0064   0.0170   0.0254   0.0051   0.0114   0.0039   0.00    0.0
2025/02/04 04:34:12.000   16.262307453  -61.527535688   -25.5870   6  19   0.0064   0.0169   0.0252   0.0051   0.0113   0.0039   0.00    0.0
2025/02/04 04:34:42.000   16.262307456  -61.527535666   -25.5886   6  17   0.0063   0.0166   0.0247   0.0050   0.0109   0.0037   0.00    0.0
2025/02/04 04:35:12.000   16.262307464  -61.527535654   -25.5902   6  19   0.0062   0.0165   0.0245   0.0049   0.0108   0.0037   0.00    0.0
2025/02/04 04:35:42.000   16.262307466  -61.527535649   -25.5900   6  19   0.0062   0.0164   0.0244   0.0049   0.0108   0.0037   0.00    0.0
2025/02/04 04:36:12.000   16.262307468  -61.527535648   -25.5900   6  19   0.0062   0.0164   0.0244   0.0049   0.0107   0.0037   0.00    0.0
2025/02/04 04:36:42.000   16.262307469  -61.527535647   -25.5900   6  19   0.0062   0.0164   0.0244   0.0049   0.0107   0.0037   0.00    0.0
2025/02/04 04:37:12.000   16.262307469  -61.527535645   -25.5900   6  19   0.0062   0.0164   0.0244   0.0049   0.0107   0.0037   0.00    0.0
2025/02/04 04:37:42.000   16.262307470  -61.527535643   -25.5900   6  19   0.0062   0.0164   0.0243   0.0049   0.0107   0.0037   0.00    0.0
2025/02/04 04:38:12.000   16.262307472  -61.527535642   -25.5898   6  19   0.0062   0.0164   0.0243   0.0049   0.0107   0.0037   0.00    0.0
2025/02/04 04:38:42.000   16.262307475  -61.527535644   -25.5899   6  19   0.0062   0.0163   0.0242   0.0048   0.0107   0.0038   0.00    0.0
2025/02/04 04:39:12.000   16.262307487  -61.527535619   -25.5875   6  19   0.0061   0.0161   0.0240   0.0048   0.0105   0.0038   0.00    0.0
2025/02/04 04:39:42.000   16.262307503  -61.527535611   -25.5836   6  19   0.0059   0.0157   0.0234   0.0046   0.0101   0.0038   0.00    0.0
2025/02/04 04:40:12.000   16.262307510  -61.527535603   -25.5801   6  19   0.0059   0.0156   0.0233   0.0045   0.0100   0.0038   0.00    0.0
2025/02/04 04:40:42.000   16.262307515  -61.527535601   -25.5788   6  19   0.0059   0.0156   0.0232   0.0045   0.0100   0.0038   0.00    0.0
2025/02/04 04:41:12.000   16.262307517  -61.527535601   -25.5784   6  19   0.0059   0.0156   0.0232   0.0045   0.0100   0.0038   0.00    0.0
2025/02/04 04:41:42.000   16.262307518  -61.527535600   -25.5782   6  19   0.0059   0.0156   0.0232   0.0045   0.0100   0.0038   0.00    0.0
2025/02/04 04:42:12.000   16.262307518  -61.527535600   -25.5781   6  19   0.0059   0.0156   0.0232   0.0045   0.0100   0.0038   0.00    0.0
2025/02/04 04:42:42.000   16.262307519  -61.527535600   -25.5779   6  19   0.0059   0.0156   0.0232   0.0045   0.0100   0.0038   0.00    0.0
2025/02/04 04:43:12.000   16.262307520  -61.527535599   -25.5776   6  20   0.0058   0.0156   0.0231   0.0045   0.0099   0.0038   0.00    0.0
2025/02/04 04:43:42.000   16.262307524  -61.527535592   -25.5775   6  20   0.0058   0.0155   0.0231   0.0044   0.0099   0.0038   0.00    0.0
2025/02/04 04:44:12.000   16.262307530  -61.527535585   -25.5791   6  20   0.0058   0.0154   0.0229   0.0044   0.0098   0.0038   0.00    0.0
2025/02/04 04:44:42.000   16.262307543  -61.527535580   -25.5808   6  20   0.0057   0.0152   0.0224   0.0042   0.0095   0.0037   0.00    0.0
2025/02/04 04:45:12.000   16.262307548  -61.527535580   -25.5820   6  20   0.0056   0.0151   0.0223   0.0041   0.0094   0.0037   0.00    0.0
2025/02/04 04:45:42.000   16.262307550  -61.527535576   -25.5815   6  20   0.0056   0.0151   0.0222   0.0041   0.0094   0.0037   0.00    0.0
2025/02/04 04:46:12.000   16.262307551  -61.527535576   -25.5814   6  20   0.0056   0.0151   0.0222   0.0041   0.0094   0.0037   0.00    0.0
2025/02/04 04:46:42.000   16.262307551  -61.527535575   -25.5815   6  20   0.0056   0.0151   0.0222   0.0041   0.0093   0.0037   0.00    0.0
2025/02/04 04:47:12.000   16.262307551  -61.527535575   -25.5816   6  20   0.0056   0.0151   0.0221   0.0041   0.0093   0.0037   0.00    0.0
2025/02/04 04:47:42.000   16.262307552  -61.527535574   -25.5817   6  20   0.0056   0.0151   0.0221   0.0041   0.0093   0.0037   0.00    0.0
2025/02/04 04:48:12.000   16.262307553  -61.527535573   -25.5820   6  20   0.0056   0.0151   0.0221   0.0041   0.0093   0.0037   0.00    0.0
2025/02/04 04:48:42.000   16.262307556  -61.527535568   -25.5823   6  20   0.0056   0.0150   0.0220   0.0040   0.0093   0.0037   0.00    0.0
2025/02/04 04:49:12.000   16.262307561  -61.527535559   -25.5832   6  20   0.0055   0.0149   0.0219   0.0040   0.0092   0.0036   0.00    0.0
2025/02/04 04:49:42.000   16.262307572  -61.527535544   -25.5852   6  20   0.0054   0.0147   0.0214   0.0038   0.0088   0.0036   0.00    0.0
2025/02/04 04:50:12.000   16.262307572  -61.527535542   -25.5862   6  20   0.0053   0.0147   0.0212   0.0037   0.0087   0.0036   0.00    0.0
2025/02/04 04:50:42.000   16.262307573  -61.527535538   -25.5859   6  20   0.0053   0.0146   0.0212   0.0037   0.0087   0.0036   0.00    0.0
2025/02/04 04:51:12.000   16.262307574  -61.527535535   -25.5858   6  20   0.0053   0.0146   0.0212   0.0037   0.0087   0.0036   0.00    0.0
2025/02/04 04:51:42.000   16.262307574  -61.527535533   -25.5856   6  20   0.0053   0.0146   0.0211   0.0037   0.0087   0.0036   0.00    0.0
2025/02/04 04:52:12.000   16.262307574  -61.527535532   -25.5856   6  20   0.0053   0.0146   0.0211   0.0037   0.0087   0.0036   0.00    0.0
2025/02/04 04:52:42.000   16.262307575  -61.527535531   -25.5856   6  20   0.0053   0.0146   0.0211   0.0036   0.0087   0.0036   0.00    0.0
2025/02/04 04:53:12.000   16.262307576  -61.527535527   -25.5855   6  19   0.0053   0.0146   0.0211   0.0036   0.0086   0.0036   0.00    0.0
2025/02/04 04:53:42.000   16.262307579  -61.527535514   -25.5851   6  19   0.0053   0.0145   0.0210   0.0036   0.0085   0.0035   0.00    0.0
2025/02/04 04:54:12.000   16.262307588  -61.527535474   -25.5831   6  19   0.0052   0.0143   0.0208   0.0034   0.0083   0.0034   0.00    0.0
2025/02/04 04:54:42.000   16.262307602  -61.527535398   -25.5813   6  19   0.0050   0.0138   0.0203   0.0030   0.0077   0.0033   0.00    0.0
2025/02/04 04:55:12.000   16.262307605  -61.527535371   -25.5798   6  19   0.0050   0.0136   0.0202   0.0028   0.0075   0.0032   0.00    0.0
2025/02/04 04:55:42.000   16.262307604  -61.527535372   -25.5800   6  20   0.0050   0.0136   0.0201   0.0028   0.0075   0.0032   0.00    0.0
2025/02/04 04:56:12.000   16.262307604  -61.527535372   -25.5800   6  20   0.0049   0.0136   0.0201   0.0028   0.0074   0.0032   0.00    0.0
2025/02/04 04:56:42.000   16.262307604  -61.527535371   -25.5799   6  20   0.0049   0.0136   0.0201   0.0028   0.0074   0.0032   0.00    0.0
2025/02/04 04:57:12.000   16.262307604  -61.527535370   -25.5798   6  20   0.0049   0.0136   0.0201   0.0028   0.0074   0.0032   0.00    0.0
2025/02/04 04:57:42.000   16.262307604  -61.527535368   -25.5796   6  20   0.0049   0.0136   0.0201   0.0028   0.0074   0.0032   0.00    0.0
2025/02/04 04:58:12.000   16.262307604  -61.527535367   -25.5798   6  20   0.0049   0.0135   0.0200   0.0028   0.0074   0.0032   0.00    0.0
2025/02/04 04:58:42.000   16.262307604  -61.527535360   -25.5790   6  20   0.0049   0.0135   0.0200   0.0027   0.0073   0.0032   0.00    0.0
2025/02/04 04:59:12.000   16.262307602  -61.527535361   -25.5793   6  20   0.0049   0.0134   0.0199   0.0026   0.0072   0.0032   0.00    0.0
2025/02/04 04:59:42.000   16.262307604  -61.527535335   -25.5786   6  20   0.0048   0.0133   0.0197   0.0025   0.0071   0.0031   0.00    0.0
2025/02/04 05:00:12.000   16.262307606  -61.527535326   -25.5778   6  20   0.0048   0.0132   0.0196   0.0024   0.0070   0.0031   0.00    0.0
2025/02/04 05:00:42.000   16.262307606  -61.527535320   -25.5773   6  20   0.0048   0.0132   0.0196   0.0024   0.0070   0.0031   0.00    0.0
2025/02/04 05:01:12.000   16.262307606  -61.527535318   -25.5773   6  19   0.0048   0.0132   0.0196   0.0024   0.0070   0.0031   0.00    0.0
2025/02/04 05:01:42.000   16.262307606  -61.527535317   -25.5773   6  19   0.0048   0.0132   0.0196   0.0023   0.0070   0.0031   0.00    0.0
2025/02/04 05:02:12.000   16.262307605  -61.527535317   -25.5775   6  19   0.0048   0.0132   0.0196   0.0023   0.0069   0.0031   0.00    0.0
2025/02/04 05:02:42.000   16.262307605  -61.527535314   -25.5773   6  19   0.0048   0.0131   0.0195   0.0023   0.0069   0.0031   0.00    0.0
2025/02/04 05:03:12.000   16.262307604  -61.527535311   -25.5773   6  19   0.0047   0.0131   0.0195   0.0023   0.0069   0.0031   0.00    0.0
2025/02/04 05:03:42.000   16.262307603  -61.527535313   -25.5775   6  20   0.0047   0.0131   0.0195   0.0023   0.0069   0.0031   0.00    0.0
2025/02/04 05:04:12.000   16.262307599  -61.527535315   -25.5784   6  20   0.0047   0.0130   0.0194   0.0022   0.0068   0.0031   0.00    0.0
2025/02/04 05:04:42.000   16.262307602  -61.527535305   -25.5798   6  20   0.0046   0.0129   0.0192   0.0019   0.0066   0.0030   0.00    0.0
2025/02/04 05:05:12.000   16.262307603  -61.527535297   -25.5803   6  19   0.0046   0.0128   0.0191   0.0018   0.0065   0.0030   0.00    0.0
2025/02/04 05:05:42.000   16.262307603  -61.527535294   -25.5805   6  19   0.0046   0.0127   0.0190   0.0018   0.0065   0.0030   0.00    0.0
2025/02/04 05:06:12.000   16.262307603  -61.527535291   -25.5805   6  20   0.0046   0.0127   0.0190   0.0018   0.0064   0.0030   0.00    0.0
2025/02/04 05:06:42.000   16.262307603  -61.527535290   -25.5805   6  20   0.0046   0.0127   0.0190   0.0018   0.0064   0.0030   0.00    0.0
2025/02/04 05:07:12.000   16.262307603  -61.527535289   -25.5806   6  20   0.0046   0.0127   0.0190   0.0018   0.0064   0.0030   0.00    0.0
2025/02/04 05:07:42.000   16.262307603  -61.527535290   -25.5809   6  20   0.0046   0.0127   0.0190   0.0017   0.0064   0.0030   0.00    0.0
2025/02/04 05:08:12.000   16.262307604  -61.527535292   -25.5816   6  20   0.0045   0.0127   0.0190   0.0017   0.0064   0.0030   0.00    0.0
2025/02/04 05:08:42.000   16.262307605  -61.527535290   -25.5832   6  20   0.0045   0.0126   0.0189   0.0017   0.0063   0.0030   0.00    0.0
2025/02/04 05:09:12.000   16.262307603  -61.527535294   -25.5837   6  21   0.0045   0.0125   0.0188   0.0016   0.0062   0.0030   0.00    0.0
2025/02/04 05:09:42.000   16.262307602  -61.527535290   -25.5847   6  21   0.0044   0.0124   0.0186   0.0014   0.0060   0.0030   0.00    0.0
2025/02/04 05:10:12.000   16.262307603  -61.527535294   -25.5854   6  20   0.0044   0.0124   0.0186   0.0013   0.0060   0.0030   0.00    0.0
2025/02/04 05:10:42.000   16.262307603  -61.527535293   -25.5857   6  21   0.0044   0.0123   0.0185   0.0013   0.0059   0.0030   0.00    0.0
2025/02/04 05:11:12.000   16.262307603  -61.527535292   -25.5857   6  21   0.0044   0.0123   0.0185   0.0013   0.0059   0.0030   0.00    0.0
2025/02/04 05:11:42.000   16.262307603  -61.527535292   -25.5858   6  21   0.0044   0.0123   0.0185   0.0013   0.0059   0.0030   0.00    0.0
2025/02/04 05:12:12.000   16.262307604  -61.527535291   -25.5858   6  20   0.0044   0.0123   0.0185   0.0012   0.0059   0.0030   0.00    0.0
2025/02/04 05:12:42.000   16.262307603  -61.527535290   -25.5859   6  20   0.0044   0.0123   0.0185   0.0012   0.0059   0.0030   0.00    0.0
2025/02/04 05:13:12.000   16.262307603  -61.527535286   -25.5857   6  20   0.0044   0.0123   0.0185   0.0012   0.0059   0.0030   0.00    0.0
2025/02/04 05:13:42.000   16.262307602  -61.527535280   -25.5855   6  20   0.0044   0.0122   0.0184   0.0012   0.0058   0.0030   0.00    0.0
2025/02/04 05:14:12.000   16.262307599  -61.527535270   -25.5858   6  20   0.0043   0.0121   0.0183   0.0010   0.0057   0.0030   0.00    0.0
2025/02/04 05:14:42.000   16.262307601  -61.527535268   -25.5875   6  21   0.0043   0.0120   0.0182   0.0005   0.0055   0.0029   0.00    0.0
2025/02/04 05:15:12.000   16.262307602  -61.527535265   -25.5873   6  21   0.0043   0.0119   0.0181   0.0002   0.0054   0.0029   0.00    0.0
2025/02/04 05:15:42.000   16.262307603  -61.527535264   -25.5875   6  21   0.0042   0.0119   0.0181  -0.0002   0.0054   0.0029   0.00    0.0
2025/02/04 05:16:12.000   16.262307603  -61.527535264   -25.5875   6  21   0.0042   0.0119   0.0181  -0.0002   0.0054   0.0029   0.00    0.0
2025/02/04 05:16:42.000   16.262307603  -61.527535264   -25.5877   6  20   0.0042   0.0119   0.0181  -0.0003   0.0054   0.0029   0.00    0.0
2025/02/04 05:17:12.000   16.262307603  -61.527535264   -25.5877   6  20   0.0042   0.0119   0.0181  -0.0003   0.0054   0.0029   0.00    0.0
2025/02/04 05:17:42.000   16.262307603  -61.527535265   -25.5878   6  20   0.0042   0.0119   0.0180  -0.0003   0.0054   0.0029   0.00    0.0
2025/02/04 05:18:12.000   16.262307603  -61.527535264   -25.5880   6  20   0.0042   0.0119   0.0180  -0.0004   0.0054   0.0029   0.00    0.0
2025/02/04 05:18:42.000   16.262307604  -61.527535261   -25.5881   6  20   0.0042   0.0118   0.0180  -0.0005   0.0053   0.0029   0.00    0.0
2025/02/04 05:19:12.000   16.262307605  -61.527535259   -25.5886   6  21   0.0042   0.0118   0.0179  -0.0006   0.0053   0.0029   0.00    0.0
2025/02/04 05:19:42.000   16.262307607  -61.527535252   -25.5891   6  21   0.0041   0.0116   0.0178  -0.0009   0.0051   0.0029   0.00    0.0
2025/02/04 05:20:12.000   16.262307608  -61.527535253   -25.5899   6  21   0.0041   0.0116   0.0177  -0.0010   0.0051   0.0029   0.00    0.0
2025/02/04 05:20:42.000   16.262307609  -61.527535252   -25.5904   6  21   0.0041   0.0116   0.0177  -0.0010   0.0050   0.0029   0.00    0.0
2025/02/04 05:21:12.000   16.262307610  -61.527535251   -25.5905   6  21   0.0041   0.0116   0.0177  -0.0010   0.0050   0.0029   0.00    0.0
2025/02/04 05:21:42.000   16.262307610  -61.527535251   -25.5906   6  21   0.0041   0.0116   0.0176  -0.0010   0.0050   0.0029   0.00    0.0
2025/02/04 05:22:12.000   16.262307610  -61.527535251   -25.5906   6  21   0.0041   0.0116   0.0176  -0.0010   0.0050   0.0029   0.00    0.0
2025/02/04 05:22:42.000   16.262307610  -61.527535250   -25.5907   6  21   0.0041   0.0116   0.0176  -0.0010   0.0050   0.0029   0.00    0.0
2025/02/04 05:23:12.000   16.262307611  -61.527535248   -25.5908   6  21   0.0041   0.0115   0.0176  -0.0011   0.0050   0.0029   0.00    0.0
2025/02/04 05:23:42.000   16.262307611  -61.527535247   -25.5909   6  21   0.0041   0.0115   0.0176  -0.0011   0.0050   0.0029   0.00    0.0
2025/02/04 05:24:12.000   16.262307612  -61.527535248   -25.5918   6  21   0.0041   0.0115   0.0175  -0.0012   0.0049   0.0029   0.00    0.0
2025/02/04 05:24:42.000   16.262307614  -61.527535247   -25.5933   6  21   0.0040   0.0114   0.0174  -0.0014   0.0048   0.0029   0.00    0.0
2025/02/04 05:25:12.000   16.262307617  -61.527535241   -25.5940   6  21   0.0040   0.0114   0.0173  -0.0014   0.0048   0.0029   0.00    0.0
2025/02/04 05:25:42.000   16.262307618  -61.527535241   -25.5943   6  21   0.0040   0.0113   0.0173  -0.0015   0.0048   0.0029   0.00    0.0
2025/02/04 05:26:12.000   16.262307619  -61.527535241   -25.5946   6  21   0.0040   0.0113   0.0173  -0.0015   0.0048   0.0029   0.00    0.0
2025/02/04 05:26:42.000   16.262307619  -61.527535241   -25.5948   6  21   0.0040   0.0113   0.0173  -0.0015   0.0047   0.0029   0.00    0.0
2025/02/04 05:27:12.000   16.262307619  -61.527535241   -25.5949   6  21   0.0040   0.0113   0.0173  -0.0015   0.0047   0.0029   0.00    0.0
2025/02/04 05:27:42.000   16.262307619  -61.527535242   -25.5950   6  21   0.0040   0.0113   0.0172  -0.0015   0.0047   0.0029   0.00    0.0
2025/02/04 05:28:12.000   16.262307619  -61.527535242   -25.5953   6  21   0.0040   0.0113   0.0172  -0.0015   0.0047   0.0029   0.00    0.0
2025/02/04 05:28:42.000   16.262307619  -61.527535245   -25.5958   6  21   0.0040   0.0113   0.0172  -0.0015   0.0047   0.0029   0.00    0.0
2025/02/04 05:29:12.000   16.262307619  -61.527535249   -25.5968   6  21   0.0040   0.0112   0.0171  -0.0015   0.0047   0.0029   0.00    0.0
2025/02/04 05:29:42.000   16.262307620  -61.527535245   -25.5971   6  21   0.0039   0.0111   0.0169  -0.0017   0.0046   0.0028   0.00    0.0
2025/02/04 05:30:12.000   16.262307621  -61.527535245   -25.5978   6  22   0.0039   0.0111   0.0169  -0.0017   0.0045   0.0028   0.00    0.0
2025/02/04 05:30:42.000   16.262307620  -61.527535240   -25.5978   6  21   0.0039   0.0110   0.0168  -0.0017   0.0045   0.0028   0.00    0.0
2025/02/04 05:31:12.000   16.262307620  -61.527535237   -25.5979   6  21   0.0039   0.0110   0.0168  -0.0017   0.0045   0.0028   0.00    0.0
2025/02/04 05:31:42.000   16.262307620  -61.527535236   -25.5980   6  20   0.0039   0.0110   0.0168  -0.0017   0.0045   0.0028   0.00    0.0
2025/02/04 05:32:12.000   16.262307620  -61.527535235   -25.5981   6  20   0.0039   0.0110   0.0168  -0.0017   0.0045   0.0028   0.00    0.0
2025/02/04 05:32:42.000   16.262307620  -61.527535234   -25.5983   6  20   0.0039   0.0110   0.0168  -0.0017   0.0045   0.0028   0.00    0.0
2025/02/04 05:33:12.000   16.262307620  -61.527535233   -25.5984   6  21   0.0039   0.0110   0.0168  -0.0017   0.0045   0.0028   0.00    0.0
2025/02/04 05:33:42.000   16.262307622  -61.527535234   -25.5994   6  21   0.0039   0.0110   0.0167  -0.0017   0.0044   0.0028   0.00    0.0
2025/02/04 05:34:12.000   16.262307624  -61.527535235   -25.5999   6  22   0.0039   0.0109   0.0166  -0.0018   0.0044   0.0028   0.00    0.0
2025/02/04 05:34:42.000   16.262307626  -61.527535233   -25.6016   6  21   0.0038   0.0108   0.0165  -0.0018   0.0042   0.0028   0.00    0.0
2025/02/04 05:35:12.000   16.262307625  -61.527535239   -25.6018   6  21   0.0038   0.0107   0.0164  -0.0018   0.0042   0.0028   0.00    0.0
2025/02/04 05:35:42.000   16.262307625  -61.527535238   -25.6022   6  21   0.0038   0.0107   0.0163  -0.0019   0.0042   0.0028   0.00    0.0
2025/02/04 05:36:12.000   16.262307625  -61.527535237   -25.6022   6  22   0.0038   0.0107   0.0163  -0.0019   0.0042   0.0028   0.00    0.0
2025/02/04 05:36:42.000   16.262307625  -61.527535237   -25.6022   6  21   0.0038   0.0107   0.0163  -0.0019   0.0042   0.0028   0.00    0.0
2025/02/04 05:37:12.000   16.262307625  -61.527535237   -25.6023   6  21   0.0038   0.0107   0.0163  -0.0019   0.0042   0.0028   0.00    0.0
2025/02/04 05:37:42.000   16.262307625  -61.527535237   -25.6024   6  21   0.0038   0.0107   0.0163  -0.0019   0.0042   0.0028   0.00    0.0
2025/02/04 05:38:12.000   16.262307625  -61.527535237   -25.6026   6  21   0.0038   0.0107   0.0163  -0.0019   0.0042   0.0028   0.00    0.0
2025/02/04 05:38:42.000   16.262307626  -61.527535236   -25.6028   6  21   0.0038   0.0107   0.0162  -0.0019   0.0042   0.0028   0.00    0.0
2025/02/04 05:39:12.000   16.262307626  -61.527535237   -25.6029   6  21   0.0038   0.0107   0.0161  -0.0019   0.0041   0.0027   0.00    0.0
2025/02/04 05:39:42.000   16.262307626  -61.527535231   -25.6034   6  21   0.0037   0.0105   0.0160  -0.0020   0.0041   0.0027   0.00    0.0
2025/02/04 05:40:12.000   16.262307627  -61.527535232   -25.6044   6  21   0.0037   0.0105   0.0159  -0.0020   0.0041   0.0027   0.00    0.0
2025/02/04 05:40:42.000   16.262307628  -61.527535233   -25.6045   6  21   0.0037   0.0105   0.0159  -0.0020   0.0040   0.0027   0.00    0.0
2025/02/04 05:41:12.000   16.262307628  -61.527535233   -25.6046   6  21   0.0037   0.0105   0.0159  -0.0020   0.0040   0.0027   0.00    0.0
2025/02/04 05:41:42.000   16.262307628  -61.527535232   -25.6047   6  21   0.0037   0.0105   0.0159  -0.0020   0.0040   0.0027   0.00    0.0
2025/02/04 05:42:12.000   16.262307628  -61.527535232   -25.6048   6  21   0.0037   0.0105   0.0159  -0.0020   0.0040   0.0027   0.00    0.0
2025/02/04 05:42:42.000   16.262307628  -61.527535231   -25.6047   6  21   0.0037   0.0105   0.0159  -0.0020   0.0040   0.0027   0.00    0.0
2025/02/04 05:43:12.000   16.262307628  -61.527535231   -25.6048   6  21   0.0037   0.0105   0.0159  -0.0020   0.0041   0.0027   0.00    0.0
2025/02/04 05:43:42.000   16.262307629  -61.527535231   -25.6047   6  21   0.0037   0.0105   0.0158  -0.0020   0.0041   0.0027   0.00    0.0
2025/02/04 05:44:12.000   16.262307630  -61.527535232   -25.6046   6  21   0.0037   0.0104   0.0158  -0.0020   0.0041   0.0027   0.00    0.0
2025/02/04 05:44:42.000   16.262307630  -61.527535231   -25.6044   6  21   0.0037   0.0103   0.0156  -0.0021   0.0040   0.0026   0.00    0.0
2025/02/04 05:45:12.000   16.262307630  -61.527535230   -25.6051   6  21   0.0037   0.0103   0.0155  -0.0021   0.0040   0.0026   0.00    0.0
2025/02/04 05:45:42.000   16.262307630  -61.527535233   -25.6053   6  22   0.0037   0.0103   0.0155  -0.0021   0.0040   0.0026   0.00    0.0
2025/02/04 05:46:12.000   16.262307630  -61.527535232   -25.6055   6  22   0.0037   0.0103   0.0155  -0.0021   0.0040   0.0026   0.00    0.0
2025/02/04 05:46:42.000   16.262307630  -61.527535232   -25.6055   6  22   0.0037   0.0103   0.0155  -0.0021   0.0040   0.0026   0.00    0.0
2025/02/04 05:47:12.000   16.262307630  -61.527535233   -25.6057   6  22   0.0037   0.0103   0.0155  -0.0021   0.0040   0.0026   0.00    0.0
2025/02/04 05:47:42.000   16.262307630  -61.527535234   -25.6059   6  21   0.0037   0.0103   0.0155  -0.0021   0.0040   0.0026   0.00    0.0
2025/02/04 05:48:12.000   16.262307630  -61.527535234   -25.6060   6  21   0.0037   0.0103   0.0154  -0.0021   0.0040   0.0026   0.00    0.0
2025/02/04 05:48:42.000   16.262307629  -61.527535236   -25.6060   6  20   0.0036   0.0103   0.0154  -0.0021   0.0040   0.0026   0.00    0.0
2025/02/04 05:49:12.000   16.262307629  -61.527535239   -25.6063   6  20   0.0036   0.0102   0.0154  -0.0021   0.0040   0.0025   0.00    0.0
2025/02/04 05:49:42.000   16.262307628  -61.527535241   -25.6057   6  20   0.0036   0.0102   0.0152  -0.0021   0.0039   0.0025   0.00    0.0
2025/02/04 05:50:12.000   16.262307628  -61.527535246   -25.6056   6  21   0.0036   0.0101   0.0152  -0.0021   0.0039   0.0025   0.00    0.0
2025/02/04 05:50:42.000   16.262307628  -61.527535248   -25.6056   6  21   0.0036   0.0101   0.0152  -0.0021   0.0039   0.0025   0.00    0.0
2025/02/04 05:51:12.000   16.262307628  -61.527535250   -25.6055   6  21   0.0036   0.0101   0.0152  -0.0021   0.0039   0.0025   0.00    0.0
2025/02/04 05:51:42.000   16.262307628  -61.527535250   -25.6056   6  21   0.0036   0.0101   0.0152  -0.0021   0.0039   0.0025   0.00    0.0
2025/02/04 05:52:12.000   16.262307628  -61.527535250   -25.6056   6  21   0.0036   0.0101   0.0152  -0.0021   0.0039   0.0025   0.00    0.0
2025/02/04 05:52:42.000   16.262307628  -61.527535250   -25.6056   6  21   0.0036   0.0101   0.0151  -0.0021   0.0039   0.0025   0.00    0.0
2025/02/04 05:53:12.000   16.262307628  -61.527535251   -25.6057   6  21   0.0036   0.0101   0.0151  -0.0021   0.0039   0.0025   0.00    0.0
2025/02/04 05:53:42.000   16.262307629  -61.527535250   -25.6058   6  21   0.0036   0.0101   0.0151  -0.0022   0.0039   0.0025   0.00    0.0
2025/02/04 05:54:12.000   16.262307629  -61.527535250   -25.6059   6  21   0.0036   0.0101   0.0151  -0.0022   0.0039   0.0025   0.00    0.0
2025/02/04 05:54:42.000   16.262307629  -61.527535251   -25.6058   6  21   0.0035   0.0100   0.0150  -0.0022   0.0039   0.0025   0.00    0.0
2025/02/04 05:55:12.000   16.262307630  -61.527535254   -25.6062   6  21   0.0035   0.0100   0.0149  -0.0022   0.0039   0.0024   0.00    0.0
2025/02/04 05:55:42.000   16.262307629  -61.527535256   -25.6066   6  21   0.0035   0.0100   0.0149  -0.0022   0.0039   0.0024   0.00    0.0
2025/02/04 05:56:12.000   16.262307629  -61.527535257   -25.6067   6  21   0.0035   0.0100   0.0149  -0.0022   0.0039   0.0024   0.00    0.0
2025/02/04 05:56:42.000   16.262307630  -61.527535257   -25.6068   6  21   0.0035   0.0100   0.0149  -0.0022   0.0039   0.0024   0.00    0.0
2025/02/04 05:57:12.000   16.262307630  -61.527535257   -25.6068   6  21   0.0035   0.0100   0.0149  -0.0022   0.0039   0.0024   0.00    0.0
2025/02/04 05:57:42.000   16.262307630  -61.527535257   -25.6066   6  21   0.0035   0.0100   0.0149  -0.0022   0.0039   0.0024   0.00    0.0
2025/02/04 05:58:12.000   16.262307630  -61.527535258   -25.6065   6  22   0.0035   0.0100   0.0149  -0.0022   0.0039   0.0024   0.00    0.0
2025/02/04 05:58:42.000   16.262307631  -61.527535259   -25.6064   6  22   0.0035   0.0100   0.0149  -0.0022   0.0039   0.0024   0.00    0.0
2025/02/04 05:59:12.000   16.262307632  -61.527535261   -25.6060   6  22   0.0035   0.0100   0.0148  -0.0022   0.0039   0.0024   0.00    0.0
2025/02/04 05:59:42.000   16.262307633  -61.527535266   -25.6055   6  22   0.0035   0.0099   0.0147  -0.0022   0.0039   0.0024   0.00    0.0
2025/02/04 06:00:12.000   16.262307633  -61.527535267   -25.6055   6  22   0.0035   0.0099   0.0147  -0.0022   0.0039   0.0024   0.00    0.0
2025/02/04 06:00:42.000   16.262307633  -61.527535267   -25.6055   6  22   0.0035   0.0099   0.0146  -0.0022   0.0039   0.0024   0.00    0.0
2025/02/04 06:01:12.000   16.262307633  -61.527535268   -25.6055   6  22   0.0035   0.0099   0.0146  -0.0023   0.0039   0.0024   0.00    0.0
2025/02/04 06:01:42.000   16.262307633  -61.527535268   -25.6054   6  22   0.0035   0.0099   0.0146  -0.0023   0.0039   0.0024   0.00    0.0
2025/02/04 06:02:12.000   16.262307633  -61.527535269   -25.6054   6  22   0.0035   0.0099   0.0146  -0.0023   0.0039   0.0024   0.00    0.0
2025/02/04 06:02:42.000   16.262307633  -61.527535269   -25.6054   6  22   0.0035   0.0099   0.0146  -0.0023   0.0039   0.0023   0.00    0.0
2025/02/04 06:03:12.000   16.262307633  -61.527535271   -25.6053   6  22   0.0035   0.0099   0.0146  -0.0023   0.0039   0.0023   0.00    0.0
2025/02/04 06:03:42.000   16.262307632  -61.527535273   -25.6051   6  22   0.0035   0.0098   0.0146  -0.0023   0.0039   0.0023   0.00    0.0
2025/02/04 06:04:12.000   16.262307634  -61.527535278   -25.6051   6  22   0.0034   0.0098   0.0145  -0.0023   0.0039   0.0023   0.00    0.0
2025/02/04 06:04:42.000   16.262307633  -61.527535281   -25.6057   6  22   0.0034   0.0098   0.0144  -0.0023   0.0039   0.0023   0.00    0.0
2025/02/04 06:05:12.000   16.262307633  -61.527535281   -25.6059   6  22   0.0034   0.0097   0.0144  -0.0023   0.0039   0.0023   0.00    0.0
2025/02/04 06:05:42.000   16.262307633  -61.527535282   -25.6057   6  22   0.0034   0.0097   0.0144  -0.0023   0.0039   0.0023   0.00    0.0
2025/02/04 06:06:12.000   16.262307633  -61.527535283   -25.6058   6  22   0.0034   0.0097   0.0143  -0.0023   0.0039   0.0023   0.00    0.0
2025/02/04 06:06:42.000   16.262307634  -61.527535283   -25.6058   6  22   0.0034   0.0097   0.0143  -0.0023   0.0039   0.0023   0.00    0.0
2025/02/04 06:07:12.000   16.262307634  -61.527535284   -25.6058   6  22   0.0034   0.0097   0.0143  -0.0023   0.0039   0.0022   0.00    0.0
2025/02/04 06:07:42.000   16.262307634  -61.527535284   -25.6058   6  22   0.0034   0.0097   0.0143  -0.0023   0.0039   0.0022   0.00    0.0
2025/02/04 06:08:12.000   16.262307634  -61.527535284   -25.6057   6  22   0.0034   0.0097   0.0143  -0.0023   0.0039   0.0022   0.00    0.0
2025/02/04 06:08:42.000   16.262307634  -61.527535285   -25.6057   6  22   0.0034   0.0097   0.0143  -0.0023   0.0039   0.0022   0.00    0.0
2025/02/04 06:09:12.000   16.262307634  -61.527535286   -25.6059   6  22   0.0034   0.0097   0.0142  -0.0023   0.0039   0.0022   0.00    0.0
2025/02/04 06:09:42.000   16.262307635  -61.527535283   -25.6059   6  22   0.0034   0.0096   0.0141  -0.0023   0.0039   0.0022   0.00    0.0
2025/02/04 06:10:12.000   16.262307635  -61.527535282   -25.6060   6  22   0.0033   0.0096   0.0141  -0.0023   0.0039   0.0021   0.00    0.0
2025/02/04 06:10:42.000   16.262307635  -61.527535282   -25.6064   6  22   0.0033   0.0096   0.0140  -0.0023   0.0039   0.0021   0.00    0.0
2025/02/04 06:11:12.000   16.262307635  -61.527535282   -25.6064   6  22   0.0033   0.0096   0.0140  -0.0023   0.0039   0.0021   0.00    0.0
2025/02/04 06:11:42.000   16.262307635  -61.527535282   -25.6065   6  23   0.0033   0.0096   0.0140  -0.0023   0.0039   0.0021   0.00    0.0
2025/02/04 06:12:12.000   16.262307635  -61.527535281   -25.6064   6  23   0.0033   0.0096   0.0140  -0.0023   0.0039   0.0021   0.00    0.0
2025/02/04 06:12:42.000   16.262307635  -61.527535281   -25.6063   6  23   0.0033   0.0096   0.0140  -0.0023   0.0039   0.0021   0.00    0.0
2025/02/04 06:13:12.000   16.262307636  -61.527535280   -25.6062   6  23   0.0033   0.0096   0.0140  -0.0023   0.0039   0.0021   0.00    0.0
2025/02/04 06:13:42.000   16.262307636  -61.527535279   -25.6060   6  23   0.0033   0.0096   0.0140  -0.0023   0.0039   0.0021   0.00    0.0
2025/02/04 06:14:12.000   16.262307636  -61.527535280   -25.6065   6  23   0.0033   0.0095   0.0139  -0.0023   0.0039   0.0021   0.00    0.0
2025/02/04 06:14:42.000   16.262307635  -61.527535280   -25.6071   6  23   0.0033   0.0095   0.0138  -0.0023   0.0040   0.0021   0.00    0.0
2025/02/04 06:15:12.000   16.262307636  -61.527535284   -25.6070   6  23   0.0033   0.0095   0.0138  -0.0023   0.0040   0.0020   0.00    0.0
2025/02/04 06:15:42.000   16.262307637  -61.527535284   -25.6070   6  23   0.0033   0.0094   0.0137  -0.0023   0.0040   0.0020   0.00    0.0
2025/02/04 06:16:12.000   16.262307637  -61.527535284   -25.6073   6  23   0.0033   0.0094   0.0137  -0.0023   0.0040   0.0020   0.00    0.0
2025/02/04 06:16:42.000   16.262307637  -61.527535284   -25.6074   6  23   0.0033   0.0094   0.0137  -0.0023   0.0040   0.0020   0.00    0.0
2025/02/04 06:17:12.000   16.262307637  -61.527535284   -25.6075   6  23   0.0033   0.0094   0.0137  -0.0023   0.0040   0.0020   0.00    0.0
2025/02/04 06:17:42.000   16.262307637  -61.527535284   -25.6075   6  23   0.0033   0.0094   0.0137  -0.0023   0.0040   0.0020   0.00    0.0
2025/02/04 06:18:12.000   16.262307637  -61.527535284   -25.6075   6  23   0.0033   0.0094   0.0137  -0.0024   0.0040   0.0020   0.00    0.0
2025/02/04 06:18:42.000   16.262307637  -61.527535284   -25.6079   6  23   0.0033   0.0094   0.0137  -0.0024   0.0040   0.0020   0.00    0.0
2025/02/04 06:19:12.000   16.262307637  -61.527535284   -25.6085   6  23   0.0033   0.0094   0.0136  -0.0024   0.0040   0.0020   0.00    0.0
2025/02/04 06:19:42.000   16.262307637  -61.527535285   -25.6085   6  23   0.0033   0.0093   0.0135  -0.0024   0.0040   0.0020   0.00    0.0
2025/02/04 06:20:12.000   16.262307638  -61.527535286   -25.6082   6  23   0.0033   0.0093   0.0134  -0.0024   0.0040   0.0019   0.00    0.0
2025/02/04 06:20:42.000   16.262307639  -61.527535285   -25.6082   6  22   0.0032   0.0093   0.0134  -0.0024   0.0040   0.0019   0.00    0.0
2025/02/04 06:21:12.000   16.262307639  -61.527535286   -25.6082   6  22   0.0032   0.0093   0.0134  -0.0024   0.0040   0.0019   0.00    0.0
2025/02/04 06:21:42.000   16.262307639  -61.527535286   -25.6082   6  23   0.0032   0.0093   0.0134  -0.0024   0.0040   0.0019   0.00    0.0
2025/02/04 06:22:12.000   16.262307639  -61.527535286   -25.6083   6  23   0.0032   0.0093   0.0134  -0.0024   0.0040   0.0019   0.00    0.0
2025/02/04 06:22:42.000   16.262307639  -61.527535287   -25.6083   6  23   0.0032   0.0093   0.0134  -0.0024   0.0040   0.0019   0.00    0.0
2025/02/04 06:23:12.000   16.262307639  -61.527535287   -25.6083   6  23   0.0032   0.0093   0.0134  -0.0024   0.0040   0.0019   0.00    0.0
2025/02/04 06:23:42.000   16.262307639  -61.527535288   -25.6083   6  23   0.0032   0.0093   0.0134  -0.0024   0.0040   0.0019   0.00    0.0
2025/02/04 06:24:12.000   16.262307639  -61.527535289   -25.6081   6  23   0.0032   0.0093   0.0134  -0.0024   0.0040   0.0019   0.00    0.0
2025/02/04 06:24:42.000   16.262307639  -61.527535288   -25.6077   6  23   0.0032   0.0092   0.0133  -0.0024   0.0041   0.0019   0.00    0.0
2025/02/04 06:25:12.000   16.262307638  -61.527535288   -25.6078   6  23   0.0032   0.0092   0.0133  -0.0024   0.0041   0.0019   0.00    0.0
2025/02/04 06:25:42.000   16.262307639  -61.527535289   -25.6077   6  23   0.0032   0.0092   0.0133  -0.0024   0.0041   0.0019   0.00    0.0
2025/02/04 06:26:12.000   16.262307639  -61.527535289   -25.6076   6  23   0.0032   0.0092   0.0132  -0.0024   0.0041   0.0019   0.00    0.0
2025/02/04 06:26:42.000   16.262307639  -61.527535289   -25.6075   6  23   0.0032   0.0092   0.0132  -0.0024   0.0041   0.0019   0.00    0.0
2025/02/04 06:27:12.000   16.262307639  -61.527535289   -25.6076   6  23   0.0032   0.0092   0.0132  -0.0024   0.0041   0.0019   0.00    0.0
2025/02/04 06:27:42.000   16.262307639  -61.527535289   -25.6075   6  23   0.0032   0.0092   0.0132  -0.0024   0.0041   0.0019   0.00    0.0
2025/02/04 06:28:12.000   16.262307639  -61.527535290   -25.6074   6  23   0.0032   0.0092   0.0132  -0.0024   0.0041   0.0018   0.00    0.0
2025/02/04 06:28:42.000   16.262307638  -61.527535291   -25.6073   6  23   0.0032   0.0092   0.0132  -0.0024   0.0040   0.0018   0.00    0.0
2025/02/04 06:29:12.000   16.262307638  -61.527535292   -25.6074   6  23   0.0032   0.0091   0.0131  -0.0024   0.0040   0.0018   0.00    0.0
2025/02/04 06:29:42.000   16.262307638  -61.527535288   -25.6072   6  22   0.0032   0.0091   0.0131  -0.0024   0.0041   0.0018   0.00    0.0
2025/02/04 06:30:12.000   16.262307638  -61.527535288   -25.6074   6  22   0.0032   0.0090   0.0131  -0.0024   0.0041   0.0018   0.00    0.0
2025/02/04 06:30:42.000   16.262307639  -61.527535288   -25.6074   6  22   0.0032   0.0090   0.0131  -0.0024   0.0040   0.0018   0.00    0.0
2025/02/04 06:31:12.000   16.262307639  -61.527535287   -25.6073   6  22   0.0032   0.0090   0.0130  -0.0024   0.0040   0.0018   0.00    0.0
2025/02/04 06:31:42.000   16.262307639  -61.527535287   -25.6073   6  22   0.0032   0.0090   0.0130  -0.0024   0.0040   0.0018   0.00    0.0
2025/02/04 06:32:12.000   16.262307639  -61.527535286   -25.6073   6  22   0.0032   0.0090   0.0130  -0.0024   0.0040   0.0018   0.00    0.0
2025/02/04 06:32:42.000   16.262307639  -61.527535286   -25.6073   6  22   0.0032   0.0090   0.0130  -0.0024   0.0040   0.0017   0.00    0.0
2025/02/04 06:33:12.000   16.262307639  -61.527535285   -25.6074   6  22   0.0032   0.0090   0.0130  -0.0024   0.0040   0.0017   0.00    0.0
2025/02/04 06:33:42.000   16.262307639  -61.527535282   -25.6074   6  22   0.0032   0.0090   0.0130  -0.0024   0.0040   0.0017   0.00    0.0
2025/02/04 06:34:12.000   16.262307639  -61.527535282   -25.6075   6  22   0.0032   0.0090   0.0130  -0.0024   0.0040   0.0017   0.00    0.0
2025/02/04 06:34:42.000   16.262307637  -61.527535283   -25.6076   6  22   0.0031   0.0089   0.0129  -0.0024   0.0041   0.0017   0.00    0.0
2025/02/04 06:35:12.000   16.262307638  -61.527535280   -25.6080   6  22   0.0031   0.0089   0.0129  -0.0024   0.0041   0.0017   0.00    0.0
2025/02/04 06:35:42.000   16.262307638  -61.527535278   -25.6081   6  22   0.0031   0.0089   0.0129  -0.0024   0.0041   0.0017   0.00    0.0
2025/02/04 06:36:12.000   16.262307638  -61.527535278   -25.6081   6  22   0.0031   0.0089   0.0129  -0.0024   0.0041   0.0017   0.00    0.0
2025/02/04 06:36:42.000   16.262307638  -61.527535277   -25.6082   6  22   0.0031   0.0089   0.0129  -0.0024   0.0041   0.0017   0.00    0.0
2025/02/04 06:37:12.000   16.262307639  -61.527535277   -25.6082   6  22   0.0031   0.0089   0.0129  -0.0024   0.0041   0.0017   0.00    0.0
2025/02/04 06:37:42.000   16.262307639  -61.527535277   -25.6082   6  22   0.0031   0.0089   0.0129  -0.0024   0.0041   0.0017   0.00    0.0
2025/02/04 06:38:12.000   16.262307638  -61.527535278   -25.6083   6  22   0.0031   0.0089   0.0129  -0.0024   0.0041   0.0017   0.00    0.0
2025/02/04 06:38:42.000   16.262307638  -61.527535279   -25.6083   6  22   0.0031   0.0089   0.0129  -0.0024   0.0041   0.0017   0.00    0.0
2025/02/04 06:39:12.000   16.262307639  -61.527535278   -25.6083   6  22   0.0031   0.0088   0.0129  -0.0024   0.0041   0.0017   0.00    0.0
2025/02/04 06:39:42.000   16.262307639  -61.527535278   -25.6080   6  22   0.0031   0.0088   0.0128  -0.0024   0.0041   0.0017   0.00    0.0
2025/02/04 06:40:12.000   16.262307639  -61.527535281   -25.6082   6  22   0.0031   0.0088   0.0128  -0.0024   0.0041   0.0017   0.00    0.0
2025/02/04 06:40:42.000   16.262307640  -61.527535281   -25.6084   6  22   0.0031   0.0088   0.0128  -0.0024   0.0041   0.0017   0.00    0.0
2025/02/04 06:41:12.000   16.262307640  -61.527535281   -25.6085   6  22   0.0031   0.0087   0.0128  -0.0024   0.0041   0.0017   0.00    0.0
2025/02/04 06:41:42.000   16.262307640  -61.527535282   -25.6086   6  23   0.0031   0.0087   0.0128  -0.0024   0.0041   0.0017   0.00    0.0
2025/02/04 06:42:12.000   16.262307640  -61.527535282   -25.6086   6  23   0.0031   0.0087   0.0128  -0.0024   0.0041   0.0017   0.00    0.0
2025/02/04 06:42:42.000   16.262307640  -61.527535282   -25.6087   6  23   0.0031   0.0087   0.0128  -0.0024   0.0041   0.0017   0.00    0.0
2025/02/04 06:43:12.000   16.262307641  -61.527535284   -25.6087   6  23   0.0031   0.0087   0.0128  -0.0024   0.0041   0.0017   0.00    0.0
2025/02/04 06:43:42.000   16.262307641  -61.527535286   -25.6089   6  23   0.0031   0.0087   0.0127  -0.0024   0.0041   0.0017   0.00    0.0
2025/02/04 06:44:12.000   16.262307642  -61.527535286   -25.6094   6  23   0.0031   0.0087   0.0127  -0.0024   0.0041   0.0017   0.00    0.0
2025/02/04 06:44:42.000   16.262307642  -61.527535285   -25.6090   6  23   0.0031   0.0086   0.0127  -0.0024   0.0041   0.0017   0.00    0.0
2025/02/04 06:45:12.000   16.262307642  -61.527535285   -25.6091   6  23   0.0031   0.0086   0.0127  -0.0024   0.0041   0.0017   0.00    0.0
2025/02/04 06:45:42.000   16.262307642  -61.527535285   -25.6092   6  23   0.0031   0.0086   0.0126  -0.0024   0.0041   0.0017   0.00    0.0
2025/02/04 06:46:12.000   16.262307642  -61.527535285   -25.6092   6  24   0.0031   0.0086   0.0126  -0.0024   0.0041   0.0017   0.00    0.0
2025/02/04 06:46:42.000   16.262307642  -61.527535285   -25.6092   6  24   0.0030   0.0086   0.0126  -0.0024   0.0041   0.0017   0.00    0.0
2025/02/04 06:47:12.000   16.262307642  -61.527535285   -25.6093   6  24   0.0030   0.0086   0.0126  -0.0024   0.0041   0.0017   0.00    0.0
2025/02/04 06:47:42.000   16.262307642  -61.527535285   -25.6093   6  24   0.0030   0.0086   0.0126  -0.0024   0.0041   0.0017   0.00    0.0
2025/02/04 06:48:12.000   16.262307642  -61.527535285   -25.6094   6  24   0.0030   0.0086   0.0126  -0.0024   0.0041   0.0017   0.00    0.0
2025/02/04 06:48:42.000   16.262307642  -61.527535284   -25.6096   6  24   0.0030   0.0086   0.0126  -0.0024   0.0041   0.0017   0.00    0.0
2025/02/04 06:49:12.000   16.262307642  -61.527535283   -25.6097   6  24   0.0030   0.0086   0.0126  -0.0024   0.0041   0.0017   0.00    0.0
2025/02/04 06:49:42.000   16.262307641  -61.527535283   -25.6095   6  24   0.0030   0.0085   0.0125  -0.0023   0.0042   0.0017   0.00    0.0
2025/02/04 06:50:12.000   16.262307641  -61.527535284   -25.6101   6  24   0.0030   0.0085   0.0125  -0.0023   0.0042   0.0017   0.00    0.0
2025/02/04 06:50:42.000   16.262307642  -61.527535283   -25.6103   6  24   0.0030   0.0085   0.0125  -0.0023   0.0042   0.0017   0.00    0.0
2025/02/04 06:51:12.000   16.262307642  -61.527535282   -25.6104   6  24   0.0030   0.0085   0.0125  -0.0023   0.0042   0.0017   0.00    0.0
2025/02/04 06:51:42.000   16.262307642  -61.527535282   -25.6105   6  24   0.0030   0.0085   0.0125  -0.0023   0.0042   0.0017   0.00    0.0
2025/02/04 06:52:12.000   16.262307642  -61.527535282   -25.6105   6  24   0.0030   0.0085   0.0125  -0.0023   0.0042   0.0017   0.00    0.0
2025/02/04 06:52:42.000   16.262307642  -61.527535282   -25.6106   6  24   0.0030   0.0085   0.0125  -0.0023   0.0042   0.0017   0.00    0.0
2025/02/04 06:53:12.000   16.262307641  -61.527535282   -25.6107   6  24   0.0030   0.0085   0.0125  -0.0023   0.0042   0.0017   0.00    0.0
